{"type":"Topology","arcs":[],"objects":{"street-addresses (2)":{"type":"GeometryCollection","geometries":[{"type":null,"properties":{"geo_point_2d":"{\"lon\":144.951267026203,\"lat\":-37.809496759727}","suburb_id":597,"latitude":-37.80949676,"street_no":"122","str_name":"Dudley Street","address_pnt":"122 Dudley Street  West Melbourne","easting":319652.7672,"northing":5813344.241,"gisid":51881,"longitude":144.951267,"suburb":"West Melbourne","street_id":586,"add_comp":""}},{"type":null,"properties":{"geo_point_2d":"{\"lon\":144.950956765474,\"lat\":-37.817909940314}","suburb_id":599,"latitude":-37.81790994,"street_no":"699","str_name":"Bourke Street","address_pnt":"699 Bourke Street  Docklands","easting":319645.9308,"northing":5812410.062,"gisid":37119,"longitude":144.9509568,"suburb":"Docklands","street_id":455,"add_comp":""}},{"type":null,"properties":{"geo_point_2d":"{\"lon\":144.955652914521,\"lat\":-37.819951872546}","suburb_id":591,"latitude":-37.81995187,"street_no":"32","str_name":"Downie Street","address_pnt":"32 Downie Street  Melbourne","easting":320064.283,"northing":5812192.534,"gisid":5334,"longitude":144.9556529,"suburb":"Melbourne","street_id":577,"add_comp":""}},{"type":null,"properties":{"geo_point_2d":"{\"lon\":144.960139858625,\"lat\":-37.811467461498}","suburb_id":591,"latitude":-37.81146746,"street_no":"28","str_name":"McLean Alley","address_pnt":"28 McLean Alley  Melbourne","easting":320438.6887,"northing":5813142.653,"gisid":6726,"longitude":144.9601399,"suburb":"Melbourne","street_id":860,"add_comp":""}},{"type":null,"properties":{"geo_point_2d":"{\"lon\":144.902081498883,\"lat\":-37.828304637618}","suburb_id":594,"latitude":-37.82830464,"street_no":"232","str_name":"Lorimer Street","address_pnt":"232 Lorimer Street  Port Melbourne","easting":315369.4301,"northing":5811161.08,"gisid":36455,"longitude":144.9020815,"suburb":"Port Melbourne","street_id":1370,"add_comp":""}},{"type":null,"properties":{"geo_point_2d":"{\"lon\":144.966438066591,\"lat\":-37.814170787419}","suburb_id":591,"latitude":-37.81417079,"street_no":"8","str_name":"Rainbow Alley","address_pnt":"8 Rainbow Alley  Melbourne","easting":320999.6852,"northing":5812854.764,"gisid":41244,"longitude":144.9664381,"suburb":"Melbourne","street_id":1018,"add_comp":""}},{"type":null,"properties":{"geo_point_2d":"{\"lon\":144.9665186567,\"lat\":-37.795418062169}","suburb_id":585,"latitude":-37.79541806,"street_no":"376","str_name":"Cardigan Street","address_pnt":"376 Cardigan Street  Carlton","easting":320961.4903,"northing":5814935.832,"gisid":11303,"longitude":144.9665187,"suburb":"Carlton","street_id":483,"add_comp":""}},{"type":null,"properties":{"geo_point_2d":"{\"lon\":144.963302775941,\"lat\":-37.824515900607}","suburb_id":596,"latitude":-37.8245159,"street_no":"90","str_name":"Power Street","address_pnt":"90 Power Street  Southbank","easting":320748.7104,"northing":5811700.793,"gisid":49820,"longitude":144.9633028,"suburb":"Southbank","street_id":1346,"add_comp":""}},{"type":null,"properties":{"geo_point_2d":"{\"lon\":144.921371475534,\"lat\":-37.793212092031}","suburb_id":590,"latitude":-37.79321209,"street_no":"12","str_name":"Chinnock Lane","address_pnt":"12 Chinnock Lane  Kensington","easting":316980.6144,"northing":5815093.156,"gisid":32179,"longitude":144.9213715,"suburb":"Kensington","street_id":1296,"add_comp":""}},{"type":null,"properties":{"geo_point_2d":"{\"lon\":144.971662717258,\"lat\":-37.799011407541}","suburb_id":585,"latitude":-37.79901141,"street_no":"82","str_name":"Faraday Street","address_pnt":"82 Faraday Street  Carlton","easting":321423.1031,"northing":5814546.937,"gisid":10633,"longitude":144.9716627,"suburb":"Carlton","street_id":621,"add_comp":""}},{"type":null,"properties":{"geo_point_2d":"{\"lon\":144.961449876815,\"lat\":-37.818140510973}","suburb_id":591,"latitude":-37.81814051,"street_no":"37","str_name":"Tavistock Place","address_pnt":"37 Tavistock Place  Melbourne","easting":320570.1768,"northing":5812404.688,"gisid":4556,"longitude":144.9614499,"suburb":"Melbourne","street_id":1116,"add_comp":""}},{"type":null,"properties":{"geo_point_2d":"{\"lon\":144.974116029932,\"lat\":-37.793249478798}","suburb_id":585,"latitude":-37.79324948,"street_no":"10","str_name":"Neill Street","address_pnt":"10 Neill Street  Carlton","easting":321625.2571,"northing":5815191,"gisid":48572,"longitude":144.974116,"suburb":"Carlton","street_id":925,"add_comp":""}},{"type":null,"properties":{"geo_point_2d":"{\"lon\":144.966695413928,\"lat\":-37.808609475988}","suburb_id":591,"latitude":-37.80860948,"street_no":"76","str_name":"La Trobe Street","address_pnt":"76 La Trobe Street  Melbourne","easting":321008.9082,"northing":5813472.374,"gisid":16912,"longitude":144.9666954,"suburb":"Melbourne","street_id":780,"add_comp":""}},{"type":null,"properties":{"geo_point_2d":"{\"lon\":144.978143721894,\"lat\":-37.808758953775}","suburb_id":587,"latitude":-37.80875895,"street_no":"190","str_name":"Victoria Parade","address_pnt":"190 Victoria Parade  East Melbourne","easting":322017.1629,"northing":5813477.661,"gisid":7539,"longitude":144.9781437,"suburb":"East Melbourne","street_id":1151,"add_comp":""}},{"type":null,"properties":{"geo_point_2d":"{\"lon\":144.96432728609,\"lat\":-37.815077238192}","suburb_id":591,"latitude":-37.81507724,"street_no":"313","str_name":"Little Collins Street","address_pnt":"313 Little Collins Street  Melbourne","easting":320816.0603,"northing":5812750.131,"gisid":34421,"longitude":144.9643273,"suburb":"Melbourne","street_id":812,"add_comp":""}},{"type":null,"properties":{"geo_point_2d":"{\"lon\":144.986037193791,\"lat\":-37.831515485626}","suburb_id":595,"latitude":-37.83151549,"street_no":"279","str_name":"Walsh Street","address_pnt":"279 Walsh Street  South Yarra","easting":322766.5423,"northing":5810967.473,"gisid":62520,"longitude":144.9860372,"suburb":"South Yarra","street_id":1155,"add_comp":""}},{"type":null,"properties":{"geo_point_2d":"{\"lon\":144.977553135803,\"lat\":-37.834976870006}","suburb_id":591,"latitude":-37.83497687,"street_no":"34","str_name":"Bromby Street","address_pnt":"34 Bromby Street  Melbourne","easting":322028.1674,"northing":5810567.238,"gisid":48074,"longitude":144.9775531,"suburb":"Melbourne","street_id":466,"add_comp":""}},{"type":null,"properties":{"geo_point_2d":"{\"lon\":144.948677321837,\"lat\":-37.800969374892}","suburb_id":592,"latitude":-37.80096938,"street_no":"73","str_name":"Arden Street","address_pnt":"73 Arden Street  North Melbourne","easting":319403.9991,"northing":5814285.489,"gisid":57462,"longitude":144.9486773,"suburb":"North Melbourne","street_id":395,"add_comp":""}},{"type":null,"properties":{"geo_point_2d":"{\"lon\":144.965512871844,\"lat\":-37.811814517923}","suburb_id":591,"latitude":-37.81181452,"street_no":"25","str_name":"Tattersalls Lane","address_pnt":"25 Tattersalls Lane  Melbourne","easting":320912.5437,"northing":5813114.457,"gisid":11,"longitude":144.9655129,"suburb":"Melbourne","street_id":1115,"add_comp":""}},{"type":null,"properties":{"geo_point_2d":"{\"lon\":144.965758359198,\"lat\":-37.829350582065}","suburb_id":596,"latitude":-37.82935058,"street_no":"211","str_name":"Sturt Street","address_pnt":"211 Sturt Street  Southbank","easting":320976.5373,"northing":5811169.017,"gisid":18024,"longitude":144.9657584,"suburb":"Southbank","street_id":364,"add_comp":""}},{"type":null,"properties":{"geo_point_2d":"{\"lon\":144.929413367173,\"lat\":-37.802710959316}","suburb_id":597,"latitude":-37.80271096,"street_no":"","str_name":"Lloyd Street","address_pnt":"Substation Lloyd Street  West Melbourne","easting":317712.1217,"northing":5814054.82,"gisid":42795,"longitude":144.9294134,"suburb":"West Melbourne","street_id":800,"add_comp":"Substation"}},{"type":null,"properties":{"geo_point_2d":"{\"lon\":144.966854952327,\"lat\":-37.797977217729}","suburb_id":585,"latitude":-37.79797722,"street_no":"11","str_name":"Tyne Street","address_pnt":"11 Tyne Street  Carlton","easting":320997.2811,"northing":5814652.497,"gisid":10172,"longitude":144.966855,"suburb":"Carlton","street_id":1137,"add_comp":""}},{"type":null,"properties":{"geo_point_2d":"{\"lon\":144.968184591611,\"lat\":-37.801015703625}","suburb_id":585,"latitude":-37.8010157,"street_no":"35","str_name":"Grattan Street","address_pnt":"35 Grattan Street  Carlton","easting":321121.6892,"northing":5814317.876,"gisid":10907,"longitude":144.9681846,"suburb":"Carlton","street_id":674,"add_comp":""}},{"type":null,"properties":{"geo_point_2d":"{\"lon\":144.944499164582,\"lat\":-37.803507484609}","suburb_id":592,"latitude":-37.80350749,"street_no":"16","str_name":"Lothian Street","address_pnt":"16 Lothian Street  North Melbourne","easting":319042.3154,"northing":5813995.76,"gisid":55324,"longitude":144.9444992,"suburb":"North Melbourne","street_id":804,"add_comp":""}},{"type":null,"properties":{"geo_point_2d":"{\"lon\":144.952022410485,\"lat\":-37.809732980428}","suburb_id":597,"latitude":-37.80973298,"street_no":"13","str_name":"Flagstaff Lane","address_pnt":"13 Flagstaff Lane  West Melbourne","easting":319719.8444,"northing":5813319.486,"gisid":51787,"longitude":144.9520224,"suburb":"West Melbourne","street_id":3058,"add_comp":""}},{"type":null,"properties":{"geo_point_2d":"{\"lon\":144.915920541319,\"lat\":-37.7820293452}","suburb_id":588,"latitude":-37.78202935,"street_no":"346","str_name":"Epsom Road","address_pnt":"346 Epsom Road  Flemington","easting":316472.9473,"northing":5816323.376,"gisid":33569,"longitude":144.9159205,"suburb":"Flemington","street_id":605,"add_comp":""}},{"type":null,"properties":{"geo_point_2d":"{\"lon\":144.918763193467,\"lat\":-37.793929568878}","suburb_id":590,"latitude":-37.79392957,"street_no":"57","str_name":"The Crescent","address_pnt":"57 The Crescent  Kensington","easting":316752.7077,"northing":5815008.428,"gisid":58868,"longitude":144.9187632,"suburb":"Kensington","street_id":1439,"add_comp":""}},{"type":null,"properties":{"geo_point_2d":"{\"lon\":144.95536655747,\"lat\":-37.818863650226}","suburb_id":591,"latitude":-37.81886365,"street_no":"583","str_name":"Collins Street","address_pnt":"583 Collins Street  Melbourne","easting":320036.4328,"northing":5812312.739,"gisid":34318,"longitude":144.9553666,"suburb":"Melbourne","street_id":526,"add_comp":""}},{"type":null,"properties":{"geo_point_2d":"{\"lon\":144.958675844083,\"lat\":-37.814498408689}","suburb_id":591,"latitude":-37.81449841,"street_no":"479","str_name":"Little Bourke Street","address_pnt":"479 Little Bourke Street  Melbourne","easting":320317.1529,"northing":5812803.505,"gisid":17790,"longitude":144.9586758,"suburb":"Melbourne","street_id":809,"add_comp":""}},{"type":null,"properties":{"geo_point_2d":"{\"lon\":144.942577079258,\"lat\":-37.813943274689}","suburb_id":599,"latitude":-37.81394327,"street_no":"20","str_name":"Aquitania Way","address_pnt":"20 Aquitania Way  Docklands","easting":318898.5875,"northing":5812834.014,"gisid":40039,"longitude":144.9425771,"suburb":"Docklands","street_id":117870,"add_comp":""}},{"type":null,"properties":{"geo_point_2d":"{\"lon\":144.959905370715,\"lat\":-37.81113291271}","suburb_id":591,"latitude":-37.81113291,"street_no":"29","str_name":"Flanigan Lane","address_pnt":"29 Flanigan Lane  Melbourne","easting":320417.2347,"northing":5813179.326,"gisid":6581,"longitude":144.9599054,"suburb":"Melbourne","street_id":630,"add_comp":""}},{"type":null,"properties":{"geo_point_2d":"{\"lon\":144.957250957005,\"lat\":-37.796301510374}","suburb_id":593,"latitude":-37.79630151,"street_no":"24","str_name":"Jageurs Lane","address_pnt":"24 Jageurs Lane  Parkville","easting":320147.569,"northing":5814820.002,"gisid":43375,"longitude":144.957251,"suburb":"Parkville","street_id":120047,"add_comp":""}},{"type":null,"properties":{"geo_point_2d":"{\"lon\":144.932369679046,\"lat\":-37.803902481478}","suburb_id":597,"latitude":-37.80390248,"street_no":"131","str_name":"Dynon Road","address_pnt":"131 Dynon Road  West Melbourne","easting":317975.3403,"northing":5813928.365,"gisid":15031,"longitude":144.9323697,"suburb":"West Melbourne","street_id":588,"add_comp":""}},{"type":null,"properties":{"geo_point_2d":"{\"lon\":144.927957401288,\"lat\":-37.799308035676}","suburb_id":590,"latitude":-37.79930804,"street_no":"97","str_name":"Tennyson Street","address_pnt":"97 Tennyson Street  Kensington","easting":317575.5554,"northing":5814429.589,"gisid":14798,"longitude":144.9279574,"suburb":"Kensington","street_id":1119,"add_comp":""}},{"type":null,"properties":{"geo_point_2d":"{\"lon\":144.974011518055,\"lat\":-37.798654367723}","suburb_id":585,"latitude":-37.79865437,"street_no":"31","str_name":"Barkly Street","address_pnt":"31 Barkly Street  Carlton","easting":321629.0566,"northing":5814591.043,"gisid":10654,"longitude":144.9740115,"suburb":"Carlton","street_id":415,"add_comp":""}},{"type":null,"properties":{"geo_point_2d":"{\"lon\":144.949002756421,\"lat\":-37.798992305267}","suburb_id":592,"latitude":-37.79899231,"street_no":"162","str_name":"Curzon Street","address_pnt":"162 Curzon Street  North Melbourne","easting":319427.8376,"northing":5814505.506,"gisid":53951,"longitude":144.9490028,"suburb":"North Melbourne","street_id":552,"add_comp":""}},{"type":null,"properties":{"geo_point_2d":"{\"lon\":144.949118840428,\"lat\":-37.820972393284}","suburb_id":599,"latitude":-37.82097239,"street_no":"38","str_name":"Batmans Hill Drive","address_pnt":"38 Batmans Hill Drive  Docklands","easting":319491.6037,"northing":5812066.681,"gisid":45921,"longitude":144.9491188,"suburb":"Docklands","street_id":117957,"add_comp":""}},{"type":null,"properties":{"geo_point_2d":"{\"lon\":144.984328419696,\"lat\":-37.834164044176}","suburb_id":595,"latitude":-37.83416404,"street_no":"5","str_name":"Kurneh Place","address_pnt":"5 Kurneh Place  South Yarra","easting":322622.4951,"northing":5810670.328,"gisid":59644,"longitude":144.9843284,"suburb":"South Yarra","street_id":767,"add_comp":""}},{"type":null,"properties":{"geo_point_2d":"{\"lon\":144.965897826629,\"lat\":-37.795207715211}","suburb_id":585,"latitude":-37.79520771,"street_no":"67","str_name":"Keppel Street","address_pnt":"67 Keppel Street  Carlton","easting":320906.3153,"northing":5814957.984,"gisid":11283,"longitude":144.9658978,"suburb":"Carlton","street_id":755,"add_comp":""}},{"type":null,"properties":{"geo_point_2d":"{\"lon\":144.941126305287,\"lat\":-37.784005382297}","suburb_id":593,"latitude":-37.78400538,"street_no":"115","str_name":"Manningham Street","address_pnt":"115 Manningham Street  Parkville","easting":318697.6748,"northing":5816153.296,"gisid":14257,"longitude":144.9411263,"suburb":"Parkville","street_id":870,"add_comp":""}},{"type":null,"properties":{"geo_point_2d":"{\"lon\":144.952158873023,\"lat\":-37.80288372389}","suburb_id":592,"latitude":-37.80288372,"street_no":"13","str_name":"Temperance Hall Lane","address_pnt":"13 Temperance Hall Lane  North Melbourne","easting":319715.1992,"northing":5814079.786,"gisid":55079,"longitude":144.9521589,"suburb":"North Melbourne","street_id":1117,"add_comp":""}},{"type":null,"properties":{"geo_point_2d":"{\"lon\":144.921169419608,\"lat\":-37.796642375611}","suburb_id":590,"latitude":-37.79664238,"street_no":"76","str_name":"Mercantile Parade","address_pnt":"76 Mercantile Parade  Kensington","easting":316971.2893,"northing":5814712.113,"gisid":31441,"longitude":144.9211694,"suburb":"Kensington","street_id":2036,"add_comp":""}},{"type":null,"properties":{"geo_point_2d":"{\"lon\":144.948643760107,\"lat\":-37.797903893269}","suburb_id":592,"latitude":-37.79790389,"street_no":"30","str_name":"Molesworth Street","address_pnt":"30 Molesworth Street  North Melbourne","easting":319393.5764,"northing":5814625.589,"gisid":53668,"longitude":144.9486438,"suburb":"North Melbourne","street_id":905,"add_comp":""}},{"type":null,"properties":{"geo_point_2d":"{\"lon\":144.964156656165,\"lat\":-37.7930219975}","suburb_id":593,"latitude":-37.793022,"street_no":"11","str_name":"College Crescent","address_pnt":"11 College Crescent  Parkville","easting":320747.7132,"northing":5815197.185,"gisid":30236,"longitude":144.9641567,"suburb":"Parkville","street_id":524,"add_comp":""}},{"type":null,"properties":{"geo_point_2d":"{\"lon\":144.95971952964,\"lat\":-37.802165328296}","suburb_id":585,"latitude":-37.80216533,"street_no":"201","str_name":"Pelham Street","address_pnt":"201 Pelham Street  Carlton","easting":320379.1431,"northing":5814174.066,"gisid":39327,"longitude":144.9597195,"suburb":"Carlton","street_id":975,"add_comp":""}},{"type":null,"properties":{"geo_point_2d":"{\"lon\":144.957182996989,\"lat\":-37.797171194166}","suburb_id":593,"latitude":-37.79717119,"street_no":"17","str_name":"Story Street","address_pnt":"17 Story Street  Parkville","easting":320143.6945,"northing":5814723.365,"gisid":27738,"longitude":144.957183,"suburb":"Parkville","street_id":1101,"add_comp":""}},{"type":null,"properties":{"geo_point_2d":"{\"lon\":144.973819094337,\"lat\":-37.800520248091}","suburb_id":585,"latitude":-37.80052025,"street_no":"16","str_name":"Owen Street","address_pnt":"16 Owen Street  Carlton","easting":321616.6031,"northing":5814383.627,"gisid":10014,"longitude":144.9738191,"suburb":"Carlton","street_id":950,"add_comp":""}},{"type":null,"properties":{"geo_point_2d":"{\"lon\":144.915156471166,\"lat\":-37.838419133683}","suburb_id":594,"latitude":-37.83841913,"street_no":"13","str_name":"Todd Road","address_pnt":"13 Todd Road  Port Melbourne","easting":316545.302,"northing":5810064.475,"gisid":2477,"longitude":144.9151565,"suburb":"Port Melbourne","street_id":1385,"add_comp":""}},{"type":null,"properties":{"geo_point_2d":"{\"lon\":144.960368500546,\"lat\":-37.816642432763}","suburb_id":591,"latitude":-37.81664243,"street_no":"11","str_name":"Bank Place","address_pnt":"11 Bank Place  Melbourne","easting":320471.3558,"northing":5812568.846,"gisid":6838,"longitude":144.9603685,"suburb":"Melbourne","street_id":412,"add_comp":""}},{"type":null,"properties":{"geo_point_2d":"{\"lon\":144.942699420588,\"lat\":-37.804808882689}","suburb_id":597,"latitude":-37.80480888,"street_no":"54","str_name":"Stawell Street","address_pnt":"54 Stawell Street  West Melbourne","easting":318887.0362,"northing":5813847.862,"gisid":48730,"longitude":144.9426994,"suburb":"West Melbourne","street_id":117835,"add_comp":""}},{"type":null,"properties":{"geo_point_2d":"{\"lon\":144.921801151432,\"lat\":-37.790027182382}","suburb_id":590,"latitude":-37.79002718,"street_no":"225","str_name":"Smithfield Road","address_pnt":"225 Smithfield Road  Kensington","easting":317010.5919,"northing":5815447.415,"gisid":20708,"longitude":144.9218012,"suburb":"Kensington","street_id":1078,"add_comp":""}},{"type":null,"properties":{"geo_point_2d":"{\"lon\":144.951178356521,\"lat\":-37.799529066296}","suburb_id":592,"latitude":-37.79952907,"street_no":"30","str_name":"Harcourt Street","address_pnt":"30 Harcourt Street  North Melbourne","easting":319620.7064,"northing":5814450.146,"gisid":63001,"longitude":144.9511784,"suburb":"North Melbourne","street_id":687,"add_comp":""}},{"type":null,"properties":{"geo_point_2d":"{\"lon\":144.953074146374,\"lat\":-37.811036813693}","suburb_id":597,"latitude":-37.81103681,"street_no":"395","str_name":"King Street","address_pnt":"395 King Street  West Melbourne","easting":319815.607,"northing":5813176.834,"gisid":29596,"longitude":144.9530742,"suburb":"West Melbourne","street_id":761,"add_comp":""}},{"type":null,"properties":{"geo_point_2d":"{\"lon\":144.969525764687,\"lat\":-37.799257825037}","suburb_id":585,"latitude":-37.79925783,"street_no":"12","str_name":"Moton Place","address_pnt":"12 Moton Place  Carlton","easting":321235.538,"northing":5814515.507,"gisid":9083,"longitude":144.9695258,"suburb":"Carlton","street_id":915,"add_comp":""}},{"type":null,"properties":{"geo_point_2d":"{\"lon\":144.934600154877,\"lat\":-37.796577064254}","suburb_id":590,"latitude":-37.79657706,"street_no":"55","str_name":"Chelmsford Street","address_pnt":"55 Chelmsford Street  Kensington","easting":318153.7548,"northing":5814745.584,"gisid":32601,"longitude":144.9346002,"suburb":"Kensington","street_id":504,"add_comp":""}},{"type":null,"properties":{"geo_point_2d":"{\"lon\":144.957918747507,\"lat\":-37.780667551804}","suburb_id":593,"latitude":-37.78066755,"street_no":"278","str_name":"The Avenue","address_pnt":"278 The Avenue  Parkville","easting":320168.4672,"northing":5816556.121,"gisid":18638,"longitude":144.9579188,"suburb":"Parkville","street_id":405,"add_comp":""}},{"type":null,"properties":{"geo_point_2d":"{\"lon\":144.974185164271,\"lat\":-37.80100010483}","suburb_id":585,"latitude":-37.8010001,"street_no":"17","str_name":"Nicholson Street","address_pnt":"17 Nicholson Street  Carlton","easting":321649.9894,"northing":5814331.078,"gisid":45386,"longitude":144.9741852,"suburb":"Carlton","street_id":931,"add_comp":""}},{"type":null,"properties":{"geo_point_2d":"{\"lon\":144.959665503834,\"lat\":-37.805841098608}","suburb_id":591,"latitude":-37.8058411,"street_no":"520","str_name":"Elizabeth Street","address_pnt":"520 Elizabeth Street  Melbourne","easting":320383.2934,"northing":5813766.077,"gisid":24998,"longitude":144.9596655,"suburb":"Melbourne","street_id":599,"add_comp":""}},{"type":null,"properties":{"geo_point_2d":"{\"lon\":144.967770931477,\"lat\":-37.83077861598}","suburb_id":596,"latitude":-37.83077862,"street_no":"66","str_name":"Dorcas Street","address_pnt":"66 Dorcas Street  Southbank","easting":321157.121,"northing":5811014.41,"gisid":46711,"longitude":144.9677709,"suburb":"Southbank","street_id":360,"add_comp":""}},{"type":null,"properties":{"geo_point_2d":"{\"lon\":144.967664403406,\"lat\":-37.797503093264}","suburb_id":585,"latitude":-37.79750309,"street_no":"404","str_name":"Lygon Street","address_pnt":"404 Lygon Street  Carlton","easting":321067.4103,"northing":5814706.66,"gisid":44043,"longitude":144.9676644,"suburb":"Carlton","street_id":840,"add_comp":""}},{"type":null,"properties":{"geo_point_2d":"{\"lon\":144.978509234417,\"lat\":-37.835032249758}","suburb_id":591,"latitude":-37.83503225,"street_no":"95","str_name":"Domain Street","address_pnt":"95 Domain Street  Melbourne","easting":322112.4442,"northing":5810562.915,"gisid":48029,"longitude":144.9785092,"suburb":"Melbourne","street_id":574,"add_comp":""}},{"type":null,"properties":{"geo_point_2d":"{\"lon\":144.957421759528,\"lat\":-37.821234943376}","suburb_id":591,"latitude":-37.82123494,"street_no":"14","str_name":"Rebecca Walk","address_pnt":"14 Rebecca Walk  Melbourne","easting":320223.1003,"northing":5812053.563,"gisid":36896,"longitude":144.9574218,"suburb":"Melbourne","street_id":119776,"add_comp":""}},{"type":null,"properties":{"geo_point_2d":"{\"lon\":144.989863282371,\"lat\":-37.815317193196}","suburb_id":587,"latitude":-37.81531719,"street_no":"26","str_name":"Burchett Lane","address_pnt":"26 Burchett Lane  East Melbourne","easting":323064.5947,"northing":5812772.186,"gisid":7891,"longitude":144.9898633,"suburb":"East Melbourne","street_id":1402,"add_comp":""}},{"type":null,"properties":{"geo_point_2d":"{\"lon\":144.95393896288,\"lat\":-37.805954668615}","suburb_id":597,"latitude":-37.80595467,"street_no":"494","str_name":"William Street","address_pnt":"494 William Street  West Melbourne","easting":319879.3913,"northing":5813742.448,"gisid":35409,"longitude":144.953939,"suburb":"West Melbourne","street_id":1179,"add_comp":""}},{"type":null,"properties":{"geo_point_2d":"{\"lon\":144.95183254404,\"lat\":-37.803603257087}","suburb_id":592,"latitude":-37.80360326,"street_no":"44","str_name":"Little Leveson Street","address_pnt":"44 Little Leveson Street  North Melbourne","easting":319688.2175,"northing":5813999.312,"gisid":55894,"longitude":144.9518325,"suburb":"North Melbourne","street_id":824,"add_comp":""}},{"type":null,"properties":{"geo_point_2d":"{\"lon\":144.973207707228,\"lat\":-37.796883336563}","suburb_id":585,"latitude":-37.79688334,"street_no":"92","str_name":"Canning Street","address_pnt":"92 Canning Street  Carlton","easting":321554.0181,"northing":5814786.032,"gisid":41403,"longitude":144.9732077,"suburb":"Carlton","street_id":479,"add_comp":""}},{"type":null,"properties":{"geo_point_2d":"{\"lon\":144.919560280356,\"lat\":-37.797605018621}","suburb_id":590,"latitude":-37.79760502,"street_no":"53","str_name":"Goldsbrough Walk","address_pnt":"53 Goldsbrough Walk  Kensington","easting":316831.9767,"northing":5814602.139,"gisid":16470,"longitude":144.9195603,"suburb":"Kensington","street_id":3233,"add_comp":""}},{"type":null,"properties":{"geo_point_2d":"{\"lon\":144.963082353032,\"lat\":-37.800979696011}","suburb_id":585,"latitude":-37.8009797,"street_no":"18","str_name":"Church Street","address_pnt":"18 Church Street  Carlton","easting":320672.3604,"northing":5814312.091,"gisid":11920,"longitude":144.9630824,"suburb":"Carlton","street_id":512,"add_comp":""}},{"type":null,"properties":{"geo_point_2d":"{\"lon\":144.985545473692,\"lat\":-37.841540993118}","suburb_id":595,"latitude":-37.84154099,"street_no":"7","str_name":"Pasley Street North","address_pnt":"7 Pasley Street North  South Yarra","easting":322747.2682,"northing":5809854.048,"gisid":60051,"longitude":144.9855455,"suburb":"South Yarra","street_id":966,"add_comp":""}},{"type":null,"properties":{"geo_point_2d":"{\"lon\":144.945157907737,\"lat\":-37.792666627231}","suburb_id":592,"latitude":-37.79266663,"street_no":"521","str_name":"Dryburgh Street","address_pnt":"521 Dryburgh Street  North Melbourne","easting":319073.8617,"northing":5815200.005,"gisid":53221,"longitude":144.9451579,"suburb":"North Melbourne","street_id":585,"add_comp":""}},{"type":null,"properties":{"geo_point_2d":"{\"lon\":144.945244936666,\"lat\":-37.80162784163}","suburb_id":592,"latitude":-37.80162784,"street_no":"38","str_name":"Little Lothian Street North","address_pnt":"38 Little Lothian Street North  North Melbourne","easting":319103.3903,"northing":5814205.782,"gisid":41122,"longitude":144.9452449,"suburb":"North Melbourne","street_id":826,"add_comp":""}},{"type":null,"properties":{"geo_point_2d":"{\"lon\":144.985584519913,\"lat\":-37.838116484212}","suburb_id":595,"latitude":-37.83811648,"street_no":"172W","str_name":"Toorak Road","address_pnt":"172W Toorak Road  South Yarra","easting":322742.5049,"northing":5810234.127,"gisid":61459,"longitude":144.9855845,"suburb":"South Yarra","street_id":1127,"add_comp":""}},{"type":null,"properties":{"geo_point_2d":"{\"lon\":144.971611459958,\"lat\":-37.799353006964}","suburb_id":585,"latitude":-37.79935301,"street_no":"4","str_name":"Little Barkly Street","address_pnt":"4 Little Barkly Street  Carlton","easting":321419.4127,"northing":5814508.934,"gisid":10607,"longitude":144.9716115,"suburb":"Carlton","street_id":807,"add_comp":""}},{"type":null,"properties":{"geo_point_2d":"{\"lon\":144.956801685764,\"lat\":-37.794618122164}","suburb_id":593,"latitude":-37.79461812,"street_no":"69","str_name":"Fitzgibbon Street","address_pnt":"69 Fitzgibbon Street  Parkville","easting":320103.9249,"northing":5815005.935,"gisid":49171,"longitude":144.9568017,"suburb":"Parkville","street_id":629,"add_comp":""}},{"type":null,"properties":{"geo_point_2d":"{\"lon\":144.92181813591,\"lat\":-37.791569791201}","suburb_id":590,"latitude":-37.79156979,"street_no":"38","str_name":"Stockmans Way","address_pnt":"38 Stockmans Way  Kensington","easting":317015.8939,"northing":5815276.271,"gisid":32520,"longitude":144.9218181,"suburb":"Kensington","street_id":1438,"add_comp":""}},{"type":null,"properties":{"geo_point_2d":"{\"lon\":144.950629605076,\"lat\":-37.800452645065}","suburb_id":592,"latitude":-37.80045265,"street_no":"19","str_name":"O'shanassy Street","address_pnt":"19 O'shanassy Street  North Melbourne","easting":319574.6366,"northing":5814346.601,"gisid":54715,"longitude":144.9506296,"suburb":"North Melbourne","street_id":949,"add_comp":""}},{"type":null,"properties":{"geo_point_2d":"{\"lon\":144.955999739658,\"lat\":-37.794635847427}","suburb_id":593,"latitude":-37.79463585,"street_no":"28","str_name":"Wimble Street","address_pnt":"28 Wimble Street  Parkville","easting":320033.352,"northing":5815002.424,"gisid":63362,"longitude":144.9559997,"suburb":"Parkville","street_id":1183,"add_comp":""}},{"type":null,"properties":{"geo_point_2d":"{\"lon\":144.98743729032,\"lat\":-37.833395415056}","suburb_id":595,"latitude":-37.83339541,"street_no":"903","str_name":"Punt Road","address_pnt":"903 Punt Road  South Yarra","easting":322894.263,"northing":5810761.522,"gisid":61904,"longitude":144.9874373,"suburb":"South Yarra","street_id":1004,"add_comp":""}},{"type":null,"properties":{"geo_point_2d":"{\"lon\":144.963029268553,\"lat\":-37.826018833635}","suburb_id":596,"latitude":-37.82601883,"street_no":"7","str_name":"Bale Circuit","address_pnt":"7 Bale Circuit  Southbank","easting":320728.2739,"northing":5811533.493,"gisid":13695,"longitude":144.9630293,"suburb":"Southbank","street_id":120184,"add_comp":""}},{"type":null,"properties":{"geo_point_2d":"{\"lon\":144.962419244454,\"lat\":-37.809428068851}","suburb_id":591,"latitude":-37.80942807,"street_no":"37","str_name":"Little La Trobe Street","address_pnt":"37 Little La Trobe Street  Melbourne","easting":320634.4199,"northing":5813373.336,"gisid":6351,"longitude":144.9624192,"suburb":"Melbourne","street_id":822,"add_comp":""}},{"type":null,"properties":{"geo_point_2d":"{\"lon\":144.937917665763,\"lat\":-37.792126032708}","suburb_id":592,"latitude":-37.79212603,"street_no":"87","str_name":"Sutton Street","address_pnt":"87 Sutton Street  North Melbourne","easting":318434.9753,"northing":5815245.95,"gisid":22645,"longitude":144.9379177,"suburb":"North Melbourne","street_id":119626,"add_comp":""}},{"type":null,"properties":{"geo_point_2d":"{\"lon\":144.948304569753,\"lat\":-37.80722888143}","suburb_id":597,"latitude":-37.80722888,"street_no":"92","str_name":"Roden Street","address_pnt":"92 Roden Street  West Melbourne","easting":319386.4315,"northing":5813590.175,"gisid":52232,"longitude":144.9483046,"suburb":"West Melbourne","street_id":1035,"add_comp":""}},{"type":null,"properties":{"geo_point_2d":"{\"lon\":144.944319119834,\"lat\":-37.82379882932}","suburb_id":599,"latitude":-37.82379883,"street_no":"","str_name":"River Esplanade","address_pnt":"Berth 77, Marina YE River Esplanade  Docklands","easting":319076.0142,"northing":5811743.753,"gisid":42348,"longitude":144.9443191,"suburb":"Docklands","street_id":117906,"add_comp":"Berth 77, Marina YE"}},{"type":null,"properties":{"geo_point_2d":"{\"lon\":144.954391806711,\"lat\":-37.819169528001}","suburb_id":591,"latitude":-37.81916953,"street_no":"82","str_name":"Spencer Street","address_pnt":"82 Spencer Street  Melbourne","easting":319951.3719,"northing":5812276.918,"gisid":26597,"longitude":144.9543918,"suburb":"Melbourne","street_id":1086,"add_comp":""}},{"type":null,"properties":{"geo_point_2d":"{\"lon\":144.92326367167,\"lat\":-37.795200674501}","suburb_id":590,"latitude":-37.79520067,"street_no":"10","str_name":"Coghlan Way","address_pnt":"10 Coghlan Way  Kensington","easting":317152.1408,"northing":5814876.194,"gisid":31818,"longitude":144.9232637,"suburb":"Kensington","street_id":117794,"add_comp":""}},{"type":null,"properties":{"geo_point_2d":"{\"lon\":144.947205664316,\"lat\":-37.819781659374}","suburb_id":599,"latitude":-37.81978166,"street_no":"78","str_name":"Harbour Esplanade","address_pnt":"78 Harbour Esplanade  Docklands","easting":319320.2933,"northing":5812195.113,"gisid":6093,"longitude":144.9472057,"suburb":"Docklands","street_id":117766,"add_comp":""}},{"type":null,"properties":{"geo_point_2d":"{\"lon\":144.956423354385,\"lat\":-37.816436912567}","suburb_id":591,"latitude":-37.81643691,"street_no":"32","str_name":"Gallaghers Place","address_pnt":"32 Gallaghers Place  Melbourne","easting":320123.5677,"northing":5812584.061,"gisid":4978,"longitude":144.9564234,"suburb":"Melbourne","street_id":1252,"add_comp":""}},{"type":null,"properties":{"geo_point_2d":"{\"lon\":144.951856909001,\"lat\":-37.820520950979}","suburb_id":599,"latitude":-37.82052095,"street_no":"25","str_name":"Wurundjeri Way","address_pnt":"25 Wurundjeri Way  Docklands","easting":319731.5221,"northing":5812122.065,"gisid":1132,"longitude":144.9518569,"suburb":"Docklands","street_id":117786,"add_comp":""}},{"type":null,"properties":{"geo_point_2d":"{\"lon\":144.920546680826,\"lat\":-37.798124273498}","suburb_id":590,"latitude":-37.79812427,"street_no":"144","str_name":"Kensington Road","address_pnt":"144 Kensington Road  Kensington","easting":316920.1141,"northing":5814546.452,"gisid":25031,"longitude":144.9205467,"suburb":"Kensington","street_id":753,"add_comp":""}},{"type":null,"properties":{"geo_point_2d":"{\"lon\":144.959172766953,\"lat\":-37.803193398671}","suburb_id":585,"latitude":-37.8031934,"street_no":"94","str_name":"Berkeley Street","address_pnt":"94 Berkeley Street  Carlton","easting":320333.4942,"northing":5814058.934,"gisid":58317,"longitude":144.9591728,"suburb":"Carlton","street_id":441,"add_comp":""}},{"type":null,"properties":{"geo_point_2d":"{\"lon\":144.963199070508,\"lat\":-37.811431166604}","suburb_id":591,"latitude":-37.81143117,"street_no":"300","str_name":"Lonsdale Street","address_pnt":"Shop 31, Ground 300 Lonsdale Street  Melbourne","easting":320707.9204,"northing":5813152.557,"gisid":40500,"longitude":144.9631991,"suburb":"Melbourne","street_id":803,"add_comp":"Shop 31, Ground"}},{"type":null,"properties":{"geo_point_2d":"{\"lon\":144.973234045509,\"lat\":-37.818057920208}","suburb_id":591,"latitude":-37.81805792,"street_no":"","str_name":"Batman Avenue","address_pnt":"Birrarung Marr Batman Avenue  Melbourne","easting":321607.3097,"northing":5812436.427,"gisid":19376,"longitude":144.9732341,"suburb":"Melbourne","street_id":422,"add_comp":"Birrarung Marr"}},{"type":null,"properties":{"geo_point_2d":"{\"lon\":144.966662200197,\"lat\":-37.823155654622}","suburb_id":596,"latitude":-37.82315565,"street_no":"79","str_name":"Southbank Boulevard","address_pnt":"79 Southbank Boulevard  Southbank","easting":321041.1207,"northing":5811858.177,"gisid":24111,"longitude":144.9666622,"suburb":"Southbank","street_id":1343,"add_comp":""}},{"type":null,"properties":{"geo_point_2d":"{\"lon\":144.931677707363,\"lat\":-37.824134875994}","suburb_id":594,"latitude":-37.82413488,"street_no":"168","str_name":"Turner Street","address_pnt":"168 Turner Street  Port Melbourne","easting":317964.1272,"northing":5811681.895,"gisid":1179,"longitude":144.9316777,"suburb":"Port Melbourne","street_id":1380,"add_comp":""}},{"type":null,"properties":{"geo_point_2d":"{\"lon\":144.929289368192,\"lat\":-37.790398709616}","suburb_id":590,"latitude":-37.79039871,"street_no":"58","str_name":"Bellair Street","address_pnt":"58 Bellair Street  Kensington","easting":317670.9295,"northing":5815420.825,"gisid":28260,"longitude":144.9292894,"suburb":"Kensington","street_id":430,"add_comp":""}},{"type":null,"properties":{"geo_point_2d":"{\"lon\":144.963727479878,\"lat\":-37.809785033818}","suburb_id":591,"latitude":-37.80978503,"street_no":"373","str_name":"Swanston Street","address_pnt":"373 Swanston Street  Melbourne","easting":320750.4577,"northing":5813336.236,"gisid":38243,"longitude":144.9637275,"suburb":"Melbourne","street_id":1114,"add_comp":""}},{"type":null,"properties":{"geo_point_2d":"{\"lon\":144.9582444158,\"lat\":-37.819161451566}","suburb_id":591,"latitude":-37.81916145,"street_no":"471","str_name":"Flinders Lane","address_pnt":"471 Flinders Lane  Melbourne","easting":320290.484,"northing":5812285.234,"gisid":27517,"longitude":144.9582444,"suburb":"Melbourne","street_id":635,"add_comp":""}},{"type":null,"properties":{"geo_point_2d":"{\"lon\":144.920521674972,\"lat\":-37.791684045138}","suburb_id":590,"latitude":-37.79168405,"street_no":"16","str_name":"Musgrove Mews","address_pnt":"16 Musgrove Mews  Kensington","easting":316902.0099,"northing":5815261.053,"gisid":20376,"longitude":144.9205217,"suburb":"Kensington","street_id":1426,"add_comp":""}},{"type":null,"properties":{"geo_point_2d":"{\"lon\":144.956652542208,\"lat\":-37.824954083126}","suburb_id":596,"latitude":-37.82495408,"street_no":"2","str_name":"Normanby Road","address_pnt":"2 Normanby Road  Southbank","easting":320164.4201,"northing":5811639.383,"gisid":37316,"longitude":144.9566525,"suburb":"Southbank","street_id":1368,"add_comp":""}},{"type":null,"properties":{"geo_point_2d":"{\"lon\":144.924714081429,\"lat\":-37.825835532258}","suburb_id":594,"latitude":-37.82583553,"street_no":"32","str_name":"Douglas Street","address_pnt":"32 Douglas Street  Port Melbourne","easting":317355.3757,"northing":5811479.581,"gisid":2002,"longitude":144.9247141,"suburb":"Port Melbourne","street_id":1392,"add_comp":""}},{"type":null,"properties":{"geo_point_2d":"{\"lon\":144.965815924201,\"lat\":-37.815896822816}","suburb_id":591,"latitude":-37.81589682,"street_no":"3","str_name":"Manchester Lane","address_pnt":"3 Manchester Lane  Melbourne","easting":320949.0875,"northing":5812662.04,"gisid":130,"longitude":144.9658159,"suburb":"Melbourne","street_id":868,"add_comp":""}},{"type":null,"properties":{"geo_point_2d":"{\"lon\":144.982013560495,\"lat\":-37.817348379388}","suburb_id":587,"latitude":-37.81734838,"street_no":"11","str_name":"Jolimont Terrace","address_pnt":"11 Jolimont Terrace  East Melbourne","easting":322378.4477,"northing":5812531.895,"gisid":48226,"longitude":144.9820136,"suburb":"East Melbourne","street_id":746,"add_comp":""}},{"type":null,"properties":{"geo_point_2d":"{\"lon\":144.969478792123,\"lat\":-37.829015941552}","suburb_id":596,"latitude":-37.82901594,"street_no":"40","str_name":"Coventry Street","address_pnt":"40 Coventry Street  Southbank","easting":321303.1809,"northing":5811213.277,"gisid":46733,"longitude":144.9694788,"suburb":"Southbank","street_id":1360,"add_comp":""}},{"type":null,"properties":{"geo_point_2d":"{\"lon\":144.980939941598,\"lat\":-37.83514289414}","suburb_id":595,"latitude":-37.83514289,"street_no":"48","str_name":"St Martins Place","address_pnt":"48 St Martins Place  South Yarra","easting":322326.6297,"northing":5810555.266,"gisid":60682,"longitude":144.9809399,"suburb":"South Yarra","street_id":1437,"add_comp":""}},{"type":null,"properties":{"geo_point_2d":"{\"lon\":144.960333703848,\"lat\":-37.779838047736}","suburb_id":586,"latitude":-37.77983805,"street_no":"532","str_name":"Royal Parade","address_pnt":"532 Royal Parade  Carlton North","easting":320379.1495,"northing":5816652.811,"gisid":42412,"longitude":144.9603337,"suburb":"Carlton North","street_id":1041,"add_comp":""}},{"type":null,"properties":{"geo_point_2d":"{\"lon\":144.951408291837,\"lat\":-37.799743148643}","suburb_id":592,"latitude":-37.79974315,"street_no":"100","str_name":"Courtney Street","address_pnt":"100 Courtney Street  North Melbourne","easting":319641.473,"northing":5814426.834,"gisid":57084,"longitude":144.9514083,"suburb":"North Melbourne","street_id":541,"add_comp":""}},{"type":null,"properties":{"geo_point_2d":"{\"lon\":144.947458663341,\"lat\":-37.819220440792}","suburb_id":599,"latitude":-37.81922044,"street_no":"20","str_name":"Waterview Walk","address_pnt":"20 Waterview Walk  Docklands","easting":319341.1952,"northing":5812257.879,"gisid":1862,"longitude":144.9474587,"suburb":"Docklands","street_id":117879,"add_comp":""}},{"type":null,"properties":{"geo_point_2d":"{\"lon\":144.971011153648,\"lat\":-37.812653221975}","suburb_id":591,"latitude":-37.81265322,"street_no":"130","str_name":"Exhibition Street","address_pnt":"130 Exhibition Street  Melbourne","easting":321398.6068,"northing":5813031.916,"gisid":37547,"longitude":144.9710112,"suburb":"Melbourne","street_id":615,"add_comp":""}},{"type":null,"properties":{"geo_point_2d":"{\"lon\":144.909815222263,\"lat\":-37.805793342949}","suburb_id":597,"latitude":-37.80579334,"street_no":"159","str_name":"Sims Street","address_pnt":"159 Sims Street  West Melbourne","easting":315994.224,"northing":5813674.357,"gisid":14532,"longitude":144.9098152,"suburb":"West Melbourne","street_id":1074,"add_comp":""}},{"type":null,"properties":{"geo_point_2d":"{\"lon\":144.981792737475,\"lat\":-37.835618491541}","suburb_id":595,"latitude":-37.83561849,"street_no":"14","str_name":"Randall Place","address_pnt":"14 Randall Place  South Yarra","easting":322402.8226,"northing":5810504.113,"gisid":60748,"longitude":144.9817927,"suburb":"South Yarra","street_id":1020,"add_comp":""}},{"type":null,"properties":{"geo_point_2d":"{\"lon\":144.907268904815,\"lat\":-37.828243183681}","suburb_id":594,"latitude":-37.82824318,"street_no":"58","str_name":"Sabre Drive","address_pnt":"58 Sabre Drive  Port Melbourne","easting":315825.8538,"northing":5811178.144,"gisid":22802,"longitude":144.9072689,"suburb":"Port Melbourne","street_id":117933,"add_comp":""}},{"type":null,"properties":{"geo_point_2d":"{\"lon\":144.969132590534,\"lat\":-37.825610058001}","suburb_id":596,"latitude":-37.82561006,"street_no":"25","str_name":"Grant Street","address_pnt":"25 Grant Street  Southbank","easting":321264.491,"northing":5811590.553,"gisid":24252,"longitude":144.9691326,"suburb":"Southbank","street_id":1351,"add_comp":""}},{"type":null,"properties":{"geo_point_2d":"{\"lon\":144.935286611828,\"lat\":-37.790324538045}","suburb_id":590,"latitude":-37.79032454,"street_no":"92","str_name":"Parsons Street","address_pnt":"92 Parsons Street  Kensington","easting":318198.8712,"northing":5815440.739,"gisid":35953,"longitude":144.9352866,"suburb":"Kensington","street_id":119642,"add_comp":""}},{"type":null,"properties":{"geo_point_2d":"{\"lon\":144.947938568116,\"lat\":-37.807029596581}","suburb_id":597,"latitude":-37.8070296,"street_no":"19","str_name":"Jones Place","address_pnt":"19 Jones Place  West Melbourne","easting":319353.7227,"northing":5813611.581,"gisid":52108,"longitude":144.9479386,"suburb":"West Melbourne","street_id":1261,"add_comp":""}},{"type":null,"properties":{"geo_point_2d":"{\"lon\":144.985777736737,\"lat\":-37.813984336637}","suburb_id":587,"latitude":-37.81398434,"street_no":"82","str_name":"Powlett Street","address_pnt":"82 Powlett Street  East Melbourne","easting":322701.7523,"northing":5812912.34,"gisid":7200,"longitude":144.9857777,"suburb":"East Melbourne","street_id":994,"add_comp":""}},{"type":null,"properties":{"geo_point_2d":"{\"lon\":144.946446594207,\"lat\":-37.80284435754}","suburb_id":592,"latitude":-37.80284436,"street_no":"629","str_name":"Queensberry Street","address_pnt":"629 Queensberry Street  North Melbourne","easting":319212.1601,"northing":5814073.116,"gisid":57981,"longitude":144.9464466,"suburb":"North Melbourne","street_id":1008,"add_comp":""}},{"type":null,"properties":{"geo_point_2d":"{\"lon\":144.965973700785,\"lat\":-37.803353303183}","suburb_id":585,"latitude":-37.8033533,"street_no":"12","str_name":"Argyle Place South","address_pnt":"12 Argyle Place South  Carlton","easting":320932.6715,"northing":5814054.247,"gisid":12470,"longitude":144.9659737,"suburb":"Carlton","street_id":398,"add_comp":""}},{"type":null,"properties":{"geo_point_2d":"{\"lon\":144.954081032372,\"lat\":-37.799508389389}","suburb_id":592,"latitude":-37.79950839,"street_no":"13","str_name":"High Street","address_pnt":"13 High Street  North Melbourne","easting":319876.2365,"northing":5814458.041,"gisid":56657,"longitude":144.954081,"suburb":"North Melbourne","street_id":707,"add_comp":""}},{"type":null,"properties":{"geo_point_2d":"{\"lon\":144.959427738029,\"lat\":-37.809760981774}","suburb_id":591,"latitude":-37.80976098,"street_no":"143","str_name":"A'Beckett Street","address_pnt":"143 A'Beckett Street  Melbourne","easting":320371.8605,"northing":5813330.645,"gisid":6249,"longitude":144.9594277,"suburb":"Melbourne","street_id":368,"add_comp":""}},{"type":null,"properties":{"geo_point_2d":"{\"lon\":144.964683994043,\"lat\":-37.810507925581}","suburb_id":591,"latitude":-37.81050793,"street_no":"247","str_name":"Little Lonsdale Street","address_pnt":"247 Little Lonsdale Street  Melbourne","easting":320836.4145,"northing":5813257.854,"gisid":41760,"longitude":144.964684,"suburb":"Melbourne","street_id":825,"add_comp":""}},{"type":null,"properties":{"geo_point_2d":"{\"lon\":144.93934713275,\"lat\":-37.81370341317}","suburb_id":599,"latitude":-37.81370341,"street_no":"19","str_name":"Waterfront Way","address_pnt":"19 Waterfront Way  Docklands","easting":318613.6587,"northing":5812854.363,"gisid":41318,"longitude":144.9393471,"suburb":"Docklands","street_id":119758,"add_comp":""}},{"type":null,"properties":{"geo_point_2d":"{\"lon\":144.936742316107,\"lat\":-37.795390283485}","suburb_id":592,"latitude":-37.79539028,"street_no":"158","str_name":"Langford Street","address_pnt":"158 Langford Street  North Melbourne","easting":318339.4723,"northing":5814881.444,"gisid":31171,"longitude":144.9367423,"suburb":"North Melbourne","street_id":774,"add_comp":""}},{"type":null,"properties":{"geo_point_2d":"{\"lon\":144.941096861314,\"lat\":-37.793418273232}","suburb_id":592,"latitude":-37.79341827,"street_no":"9","str_name":"Wilson Mews","address_pnt":"9 Wilson Mews  North Melbourne","easting":318718.0908,"northing":5815108.727,"gisid":36561,"longitude":144.9410969,"suburb":"North Melbourne","street_id":119781,"add_comp":""}},{"type":null,"properties":{"geo_point_2d":"{\"lon\":144.970600421207,\"lat\":-37.795944909131}","suburb_id":585,"latitude":-37.79594491,"street_no":"433","str_name":"Rathdowne Street","address_pnt":"433 Rathdowne Street  Carlton","easting":321322.1779,"northing":5814885.183,"gisid":44622,"longitude":144.9706004,"suburb":"Carlton","street_id":1024,"add_comp":""}},{"type":null,"properties":{"geo_point_2d":"{\"lon\":144.985730050724,\"lat\":-37.830766173647}","suburb_id":595,"latitude":-37.83076617,"street_no":"65","str_name":"Clowes Street","address_pnt":"65 Clowes Street  South Yarra","easting":322737.7166,"northing":5811050.039,"gisid":62387,"longitude":144.9857301,"suburb":"South Yarra","street_id":517,"add_comp":""}},{"type":null,"properties":{"geo_point_2d":"{\"lon\":144.967806747713,\"lat\":-37.805439616206}","suburb_id":585,"latitude":-37.80543962,"street_no":"62","str_name":"Drummond Street","address_pnt":"62 Drummond Street  Carlton","easting":321099.0978,"northing":5813826.249,"gisid":44940,"longitude":144.9678068,"suburb":"Carlton","street_id":583,"add_comp":""}},{"type":null,"properties":{"geo_point_2d":"{\"lon\":144.937283544212,\"lat\":-37.813919138759}","suburb_id":599,"latitude":-37.81391914,"street_no":"42","str_name":"Pearl River Road","address_pnt":"42 Pearl River Road  Docklands","easting":318432.5229,"northing":5812826.415,"gisid":37191,"longitude":144.9372835,"suburb":"Docklands","street_id":119108,"add_comp":""}},{"type":null,"properties":{"geo_point_2d":"{\"lon\":144.953970512789,\"lat\":-37.804993482082}","suburb_id":592,"latitude":-37.80499348,"street_no":"14","str_name":"Howard Street","address_pnt":"14 Howard Street  North Melbourne","easting":319879.8333,"northing":5813849.168,"gisid":56181,"longitude":144.9539705,"suburb":"North Melbourne","street_id":726,"add_comp":""}},{"type":null,"properties":{"geo_point_2d":"{\"lon\":144.940945717046,\"lat\":-37.805325047177}","suburb_id":597,"latitude":-37.80532505,"street_no":"1","str_name":"Laurens Street","address_pnt":"1 Laurens Street  West Melbourne","easting":318733.8958,"northing":5813787.183,"gisid":24742,"longitude":144.9409457,"suburb":"West Melbourne","street_id":781,"add_comp":""}},{"type":null,"properties":{"geo_point_2d":"{\"lon\":144.954009948104,\"lat\":-37.800130759515}","suburb_id":592,"latitude":-37.80013076,"street_no":"4","str_name":"Vale Street","address_pnt":"4 Vale Street  North Melbourne","easting":319871.4897,"northing":5814388.842,"gisid":56681,"longitude":144.95401,"suburb":"North Melbourne","street_id":1147,"add_comp":""}},{"type":null,"properties":{"geo_point_2d":"{\"lon\":144.974535617376,\"lat\":-37.796590770752}","suburb_id":585,"latitude":-37.79659077,"street_no":"14","str_name":"Palmerston Street","address_pnt":"14 Palmerston Street  Carlton","easting":321670.2406,"northing":5814821.032,"gisid":10037,"longitude":144.9745356,"suburb":"Carlton","street_id":955,"add_comp":""}},{"type":null,"properties":{"geo_point_2d":"{\"lon\":144.921393920251,\"lat\":-37.793510971903}","suburb_id":590,"latitude":-37.79351097,"street_no":"102","str_name":"Westbourne Road","address_pnt":"102 Westbourne Road  Kensington","easting":316983.3285,"northing":5815060.034,"gisid":58662,"longitude":144.9213939,"suburb":"Kensington","street_id":1173,"add_comp":""}},{"type":null,"properties":{"geo_point_2d":"{\"lon\":144.964232497804,\"lat\":-37.815122157754}","suburb_id":591,"latitude":-37.81512216,"street_no":"47","str_name":"Block Place","address_pnt":"47 Block Place  Melbourne","easting":320807.8246,"northing":5812744.965,"gisid":4380,"longitude":144.9642325,"suburb":"Melbourne","street_id":448,"add_comp":""}},{"type":null,"properties":{"geo_point_2d":"{\"lon\":144.963653933259,\"lat\":-37.817048376986}","suburb_id":591,"latitude":-37.81704838,"street_no":"13","str_name":"Bligh Place","address_pnt":"13 Bligh Place  Melbourne","easting":320761.5526,"northing":5812530.11,"gisid":4500,"longitude":144.9636539,"suburb":"Melbourne","street_id":1210,"add_comp":""}},{"type":null,"properties":{"geo_point_2d":"{\"lon\":144.973255272179,\"lat\":-37.797915622685}","suburb_id":585,"latitude":-37.79791562,"street_no":"45","str_name":"Elgin Street","address_pnt":"45 Elgin Street  Carlton","easting":321560.6907,"northing":5814671.575,"gisid":9356,"longitude":144.9732553,"suburb":"Carlton","street_id":598,"add_comp":""}},{"type":null,"properties":{"geo_point_2d":"{\"lon\":144.957212701769,\"lat\":-37.807913290684}","suburb_id":591,"latitude":-37.80791329,"street_no":"50","str_name":"Peel Street","address_pnt":"Stall 11, Shed M, Queen Victoria Market 50 Peel Street  Melbourne","easting":320172.3707,"northing":5813531.415,"gisid":47439,"longitude":144.9572127,"suburb":"Melbourne","street_id":973,"add_comp":"Stall 11, Shed M, Queen Victoria Market"}},{"type":null,"properties":{"geo_point_2d":"{\"lon\":144.957254591161,\"lat\":-37.787431103547}","suburb_id":593,"latitude":-37.7874311,"street_no":"52","str_name":"Leonard Street","address_pnt":"52 Leonard Street  Parkville","easting":320126.3748,"northing":5815804.321,"gisid":30159,"longitude":144.9572546,"suburb":"Parkville","street_id":789,"add_comp":""}},{"type":null,"properties":{"geo_point_2d":"{\"lon\":144.928798915812,\"lat\":-37.791615978442}","suburb_id":590,"latitude":-37.79161598,"street_no":"51","str_name":"McConnell Street","address_pnt":"51 McConnell Street  Kensington","easting":317630.7332,"northing":5815284.792,"gisid":27938,"longitude":144.9287989,"suburb":"Kensington","street_id":119634,"add_comp":""}},{"type":null,"properties":{"geo_point_2d":"{\"lon\":144.94889840234,\"lat\":-37.80935318849}","suburb_id":597,"latitude":-37.80935319,"street_no":"170","str_name":"Rosslyn Street","address_pnt":"170 Rosslyn Street  West Melbourne","easting":319443.8883,"northing":5813355.597,"gisid":51262,"longitude":144.9488984,"suburb":"West Melbourne","street_id":1038,"add_comp":""}},{"type":null,"properties":{"geo_point_2d":"{\"lon\":144.949800652848,\"lat\":-37.81252044408}","suburb_id":597,"latitude":-37.81252044,"street_no":"115","str_name":"Jeffcott Street","address_pnt":"115 Jeffcott Street  West Melbourne","easting":319531.0341,"northing":5813005.881,"gisid":5874,"longitude":144.9498007,"suburb":"West Melbourne","street_id":740,"add_comp":""}},{"type":null,"properties":{"geo_point_2d":"{\"lon\":144.969602071353,\"lat\":-37.822970051414}","suburb_id":596,"latitude":-37.82297005,"street_no":"184","str_name":"St Kilda Road","address_pnt":"184 St Kilda Road  Southbank","easting":321299.4451,"northing":5811884.403,"gisid":15180,"longitude":144.9696021,"suburb":"Southbank","street_id":1056,"add_comp":""}},{"type":null,"properties":{"geo_point_2d":"{\"lon\":144.918428692488,\"lat\":-37.793320122047}","suburb_id":590,"latitude":-37.79332012,"street_no":"43","str_name":"Willis Street","address_pnt":"43 Willis Street  Kensington","easting":316721.7462,"northing":5815075.4,"gisid":59138,"longitude":144.9184287,"suburb":"Kensington","street_id":1442,"add_comp":""}},{"type":null,"properties":{"geo_point_2d":"{\"lon\":144.948454655941,\"lat\":-37.796084321961}","suburb_id":592,"latitude":-37.79608432,"street_no":"62","str_name":"Chapman Street","address_pnt":"62 Chapman Street  North Melbourne","easting":319372.4927,"northing":5814827.135,"gisid":63093,"longitude":144.9484547,"suburb":"North Melbourne","street_id":500,"add_comp":""}},{"type":null,"properties":{"geo_point_2d":"{\"lon\":144.982833604087,\"lat\":-37.837060885651}","suburb_id":595,"latitude":-37.83706089,"street_no":"20","str_name":"Leopold Street","address_pnt":"20 Leopold Street  South Yarra","easting":322497.8837,"northing":5810346.036,"gisid":61180,"longitude":144.9828336,"suburb":"South Yarra","street_id":790,"add_comp":""}},{"type":null,"properties":{"geo_point_2d":"{\"lon\":144.949588104121,\"lat\":-37.811429844046}","suburb_id":597,"latitude":-37.81142984,"street_no":"111","str_name":"Batman Street","address_pnt":"111 Batman Street  West Melbourne","easting":319509.6662,"northing":5813126.491,"gisid":51097,"longitude":144.9495881,"suburb":"West Melbourne","street_id":423,"add_comp":""}},{"type":null,"properties":{"geo_point_2d":"{\"lon\":144.973871545323,\"lat\":-37.815424980138}","suburb_id":591,"latitude":-37.81542498,"street_no":"22","str_name":"Flinders Street","address_pnt":"22 Flinders Street  Melbourne","easting":321657.0898,"northing":5812729.811,"gisid":27287,"longitude":144.9738716,"suburb":"Melbourne","street_id":636,"add_comp":""}},{"type":null,"properties":{"geo_point_2d":"{\"lon\":144.948061729685,\"lat\":-37.776717850134}","suburb_id":593,"latitude":-37.77671785,"street_no":"868","str_name":"Park Street","address_pnt":"868 Park Street  Parkville","easting":319290.7169,"northing":5816975.394,"gisid":30429,"longitude":144.9480617,"suburb":"Parkville","street_id":962,"add_comp":""}},{"type":null,"properties":{"geo_point_2d":"{\"lon\":144.931396468995,\"lat\":-37.799063428686}","suburb_id":590,"latitude":-37.79906343,"street_no":"68","str_name":"McClure Road","address_pnt":"68 McClure Road  Kensington","easting":317877.7661,"northing":5814463.441,"gisid":45813,"longitude":144.9313965,"suburb":"Kensington","street_id":119559,"add_comp":""}},{"type":null,"properties":{"geo_point_2d":"{\"lon\":144.960449150512,\"lat\":-37.812002488802}","suburb_id":591,"latitude":-37.81200249,"street_no":"123","str_name":"Hardware Street","address_pnt":"123 Hardware Street  Melbourne","easting":320467.2136,"northing":5813083.878,"gisid":5157,"longitude":144.9604492,"suburb":"Melbourne","street_id":689,"add_comp":""}},{"type":null,"properties":{"geo_point_2d":"{\"lon\":144.930873779366,\"lat\":-37.790203913623}","suburb_id":590,"latitude":-37.79020391,"street_no":"16","str_name":"Davis Street","address_pnt":"16 Davis Street  Kensington","easting":317809.9759,"northing":5815445.531,"gisid":47733,"longitude":144.9308738,"suburb":"Kensington","street_id":119641,"add_comp":""}},{"type":null,"properties":{"geo_point_2d":"{\"lon\":144.972005609878,\"lat\":-37.798324477385}","suburb_id":585,"latitude":-37.79832448,"street_no":"21","str_name":"MacArthur Place North","address_pnt":"21 MacArthur Place North  Carlton","easting":321451.6406,"northing":5814623.819,"gisid":8916,"longitude":144.9720056,"suburb":"Carlton","street_id":843,"add_comp":""}},{"type":null,"properties":{"geo_point_2d":"{\"lon\":144.922320372269,\"lat\":-37.825774952887}","suburb_id":594,"latitude":-37.82577495,"street_no":"198","str_name":"Salmon Street","address_pnt":"198 Salmon Street  Port Melbourne","easting":317144.5342,"northing":5811481.618,"gisid":6011,"longitude":144.9223204,"suburb":"Port Melbourne","street_id":1393,"add_comp":""}},{"type":null,"properties":{"geo_point_2d":"{\"lon\":144.928291059288,\"lat\":-37.795554675717}","suburb_id":590,"latitude":-37.79555468,"street_no":"53","str_name":"Gower Street","address_pnt":"53 Gower Street  Kensington","easting":317595.7004,"northing":5814846.738,"gisid":33390,"longitude":144.9282911,"suburb":"Kensington","street_id":668,"add_comp":""}},{"type":null,"properties":{"geo_point_2d":"{\"lon\":144.967629355366,\"lat\":-37.820871337094}","suburb_id":596,"latitude":-37.82087134,"street_no":"10","str_name":"City Road","address_pnt":"10 City Road  Southbank","easting":321120.7353,"northing":5812113.512,"gisid":50385,"longitude":144.9676294,"suburb":"Southbank","street_id":1345,"add_comp":""}},{"type":null,"properties":{"geo_point_2d":"{\"lon\":144.964040076735,\"lat\":-37.825813198453}","suburb_id":596,"latitude":-37.8258132,"street_no":"22","str_name":"Hoff Boulevard","address_pnt":"22 Hoff Boulevard  Southbank","easting":320816.746,"northing":5811558.251,"gisid":13691,"longitude":144.9640401,"suburb":"Southbank","street_id":120183,"add_comp":""}},{"type":null,"properties":{"geo_point_2d":"{\"lon\":144.945138063218,\"lat\":-37.810425206682}","suburb_id":597,"latitude":-37.81042521,"street_no":"32","str_name":"Railway Place","address_pnt":"32 Railway Place  West Melbourne","easting":319115.451,"northing":5813229.364,"gisid":51053,"longitude":144.9451381,"suburb":"West Melbourne","street_id":1016,"add_comp":""}},{"type":null,"properties":{"geo_point_2d":"{\"lon\":144.969380922339,\"lat\":-37.825715149442}","suburb_id":596,"latitude":-37.82571515,"street_no":"7","str_name":"Wells Street","address_pnt":"7 Wells Street  Southbank","easting":321286.6024,"northing":5811579.367,"gisid":18197,"longitude":144.9693809,"suburb":"Southbank","street_id":1352,"add_comp":""}},{"type":null,"properties":{"geo_point_2d":"{\"lon\":144.947391070616,\"lat\":-37.806032502057}","suburb_id":597,"latitude":-37.8060325,"street_no":"1","str_name":"Miller Street","address_pnt":"1 Miller Street  West Melbourne","easting":319303.0896,"northing":5813721.166,"gisid":52362,"longitude":144.9473911,"suburb":"West Melbourne","street_id":899,"add_comp":""}},{"type":null,"properties":{"geo_point_2d":"{\"lon\":144.974567345486,\"lat\":-37.794679782256}","suburb_id":585,"latitude":-37.79467978,"street_no":"116","str_name":"Station Street","address_pnt":"116 Station Street  Carlton","easting":321668.4384,"northing":5815033.147,"gisid":11017,"longitude":144.9745673,"suburb":"Carlton","street_id":1092,"add_comp":""}},{"type":null,"properties":{"geo_point_2d":"{\"lon\":144.955952802706,\"lat\":-37.809359653216}","suburb_id":591,"latitude":-37.80935965,"street_no":"","str_name":"Franklin Street","address_pnt":"Carpark Franklin Street  Melbourne","easting":320064.9609,"northing":5813368.491,"gisid":42620,"longitude":144.9559528,"suburb":"Melbourne","street_id":644,"add_comp":"Carpark"}},{"type":null,"properties":{"geo_point_2d":"{\"lon\":144.957105022642,\"lat\":-37.794342971338}","suburb_id":593,"latitude":-37.79434297,"street_no":"22","str_name":"Bayles Street","address_pnt":"22 Bayles Street  Parkville","easting":320129.968,"northing":5815037.052,"gisid":63271,"longitude":144.957105,"suburb":"Parkville","street_id":424,"add_comp":""}},{"type":null,"properties":{"geo_point_2d":"{\"lon\":144.946032224573,\"lat\":-37.797557445683}","suburb_id":592,"latitude":-37.79755745,"street_no":"5","str_name":"Wood Street","address_pnt":"5 Wood Street  North Melbourne","easting":319162.7807,"northing":5814658.982,"gisid":52627,"longitude":144.9460322,"suburb":"North Melbourne","street_id":1187,"add_comp":""}},{"type":null,"properties":{"geo_point_2d":"{\"lon\":144.94594539485,\"lat\":-37.801402169391}","suburb_id":592,"latitude":-37.80140217,"street_no":"71","str_name":"Baillie Street","address_pnt":"71 Baillie Street  North Melbourne","easting":319164.5134,"northing":5814232.18,"gisid":54638,"longitude":144.9459454,"suburb":"North Melbourne","street_id":408,"add_comp":""}},{"type":null,"properties":{"geo_point_2d":"{\"lon\":144.948892433783,\"lat\":-37.810210203233}","suburb_id":597,"latitude":-37.8102102,"street_no":"7","str_name":"Wominjeka Walk","address_pnt":"7 Wominjeka Walk  West Melbourne","easting":319445.4508,"northing":5813260.485,"gisid":13948,"longitude":144.9488924,"suburb":"West Melbourne","street_id":120186,"add_comp":""}},{"type":null,"properties":{"geo_point_2d":"{\"lon\":144.953623299113,\"lat\":-37.799278184447}","suburb_id":592,"latitude":-37.79927818,"street_no":"54","str_name":"Villiers Street","address_pnt":"54 Villiers Street  North Melbourne","easting":319835.3737,"northing":5814482.703,"gisid":56787,"longitude":144.9536233,"suburb":"North Melbourne","street_id":1154,"add_comp":""}},{"type":null,"properties":{"geo_point_2d":"{\"lon\":144.978940150544,\"lat\":-37.817690803944}","suburb_id":587,"latitude":-37.8176908,"street_no":"124","str_name":"Jolimont Road","address_pnt":"124 Jolimont Road  East Melbourne","easting":322108.7227,"northing":5812488.048,"gisid":3793,"longitude":144.9789402,"suburb":"East Melbourne","street_id":744,"add_comp":""}},{"type":null,"properties":{"geo_point_2d":"{\"lon\":144.987923686611,\"lat\":-37.814895658971}","suburb_id":587,"latitude":-37.81489566,"street_no":"61","str_name":"Simpson Street","address_pnt":"61 Simpson Street  East Melbourne","easting":322892.8433,"northing":5812815.286,"gisid":8044,"longitude":144.9879237,"suburb":"East Melbourne","street_id":1073,"add_comp":""}},{"type":null,"properties":{"geo_point_2d":"{\"lon\":144.951662891568,\"lat\":-37.797741221018}","suburb_id":592,"latitude":-37.79774122,"street_no":"14","str_name":"Murphy Street","address_pnt":"14 Murphy Street  North Melbourne","easting":319659.0209,"northing":5814649.472,"gisid":63079,"longitude":144.9516629,"suburb":"North Melbourne","street_id":922,"add_comp":""}},{"type":null,"properties":{"geo_point_2d":"{\"lon\":144.94026490866,\"lat\":-37.790627678535}","suburb_id":592,"latitude":-37.79062768,"street_no":"40","str_name":"Alfred Street","address_pnt":"40 Alfred Street  North Melbourne","easting":318638.0066,"northing":5815416.774,"gisid":22422,"longitude":144.9402649,"suburb":"North Melbourne","street_id":119625,"add_comp":""}},{"type":null,"properties":{"geo_point_2d":"{\"lon\":144.920835514307,\"lat\":-37.793130996749}","suburb_id":590,"latitude":-37.793131,"street_no":"21","str_name":"Neale Street","address_pnt":"21 Neale Street  Kensington","easting":316933.2186,"northing":5815101.105,"gisid":40830,"longitude":144.9208355,"suburb":"Kensington","street_id":1304,"add_comp":""}},{"type":null,"properties":{"geo_point_2d":"{\"lon\":144.947295821217,\"lat\":-37.810477078507}","suburb_id":597,"latitude":-37.81047708,"street_no":"133","str_name":"Adderley Street","address_pnt":"133 Adderley Street  West Melbourne","easting":319305.5401,"northing":5813227.784,"gisid":1753,"longitude":144.9472958,"suburb":"West Melbourne","street_id":371,"add_comp":""}},{"type":null,"properties":{"geo_point_2d":"{\"lon\":144.983851588998,\"lat\":-37.833921292262}","suburb_id":595,"latitude":-37.83392129,"street_no":"12","str_name":"Anderson Street","address_pnt":"12 Anderson Street  South Yarra","easting":322579.9484,"northing":5810696.359,"gisid":62870,"longitude":144.9838516,"suburb":"South Yarra","street_id":383,"add_comp":""}},{"type":null,"properties":{"geo_point_2d":"{\"lon\":144.963662685513,\"lat\":-37.805122321241}","suburb_id":585,"latitude":-37.80512232,"street_no":"13","str_name":"Cornell Place","address_pnt":"13 Cornell Place  Carlton","easting":320733.476,"northing":5813853.514,"gisid":13789,"longitude":144.9636627,"suburb":"Carlton","street_id":534,"add_comp":""}},{"type":null,"properties":{"geo_point_2d":"{\"lon\":144.960309297102,\"lat\":-37.805170000618}","suburb_id":585,"latitude":-37.80517,"street_no":"48","str_name":"Leicester Street","address_pnt":"48 Leicester Street  Carlton","easting":320438.3487,"northing":5813841.783,"gisid":11586,"longitude":144.9603093,"suburb":"Carlton","street_id":786,"add_comp":""}},{"type":null,"properties":{"geo_point_2d":"{\"lon\":144.984071401667,\"lat\":-37.83525765604}","suburb_id":595,"latitude":-37.83525766,"street_no":"51","str_name":"Marne Street","address_pnt":"51 Marne Street  South Yarra","easting":322602.4955,"northing":5810548.486,"gisid":61262,"longitude":144.9840714,"suburb":"South Yarra","street_id":879,"add_comp":""}},{"type":null,"properties":{"geo_point_2d":"{\"lon\":144.955653786354,\"lat\":-37.795398969427}","suburb_id":593,"latitude":-37.79539897,"street_no":"52","str_name":"Morrah Street","address_pnt":"52 Morrah Street  Parkville","easting":320004.7413,"northing":5814917.077,"gisid":40354,"longitude":144.9556538,"suburb":"Parkville","street_id":912,"add_comp":""}},{"type":null,"properties":{"geo_point_2d":"{\"lon\":144.917646555766,\"lat\":-37.794702643088}","suburb_id":590,"latitude":-37.79470264,"street_no":"18","str_name":"Reynolds Lane","address_pnt":"18 Reynolds Lane  Kensington","easting":316656.2914,"northing":5814920.452,"gisid":58921,"longitude":144.9176466,"suburb":"Kensington","street_id":3176,"add_comp":""}},{"type":null,"properties":{"geo_point_2d":"{\"lon\":144.952313926846,\"lat\":-37.805844326424}","suburb_id":597,"latitude":-37.80584433,"street_no":"88","str_name":"Chetwynd Street","address_pnt":"88 Chetwynd Street  West Melbourne","easting":319736.0511,"northing":5813751.558,"gisid":51447,"longitude":144.9523139,"suburb":"West Melbourne","street_id":506,"add_comp":""}},{"type":null,"properties":{"geo_point_2d":"{\"lon\":144.97882453527,\"lat\":-37.809754022957}","suburb_id":587,"latitude":-37.80975402,"street_no":"372","str_name":"Albert Street","address_pnt":"372 Albert Street  East Melbourne","easting":322079.4896,"northing":5813368.539,"gisid":3115,"longitude":144.9788245,"suburb":"East Melbourne","street_id":375,"add_comp":""}},{"type":null,"properties":{"geo_point_2d":"{\"lon\":144.980201516223,\"lat\":-37.83692164957}","suburb_id":595,"latitude":-37.83692165,"street_no":"22","str_name":"Millswyn Street","address_pnt":"22 Millswyn Street  South Yarra","easting":322265.9129,"northing":5810356.479,"gisid":60944,"longitude":144.9802015,"suburb":"South Yarra","street_id":900,"add_comp":""}},{"type":null,"properties":{"geo_point_2d":"{\"lon\":144.929204112479,\"lat\":-37.794489625297}","suburb_id":590,"latitude":-37.79448962,"street_no":"2","str_name":"La Nauze Lane","address_pnt":"2 La Nauze Lane  Kensington","easting":317673.4804,"northing":5814966.705,"gisid":15735,"longitude":144.9292041,"suburb":"Kensington","street_id":1558,"add_comp":""}},{"type":null,"properties":{"geo_point_2d":"{\"lon\":144.949772972117,\"lat\":-37.819779021656}","suburb_id":599,"latitude":-37.81977902,"street_no":"53","str_name":"Village Street","address_pnt":"53 Village Street  Docklands","easting":319546.2764,"northing":5812200.37,"gisid":22924,"longitude":144.949773,"suburb":"Docklands","street_id":117946,"add_comp":""}},{"type":null,"properties":{"geo_point_2d":"{\"lon\":144.981160518231,\"lat\":-37.817422671119}","suburb_id":587,"latitude":-37.81742267,"street_no":"43","str_name":"Charles Street","address_pnt":"43 Charles Street  East Melbourne","easting":322303.534,"northing":5812522.028,"gisid":3920,"longitude":144.9811605,"suburb":"East Melbourne","street_id":501,"add_comp":""}},{"type":null,"properties":{"geo_point_2d":"{\"lon\":144.93738801496,\"lat\":-37.798500313514}","suburb_id":592,"latitude":-37.79850031,"street_no":"87","str_name":"Green Street","address_pnt":"87 Green Street  North Melbourne","easting":318403.9467,"northing":5814537.59,"gisid":30938,"longitude":144.937388,"suburb":"North Melbourne","street_id":675,"add_comp":""}},{"type":null,"properties":{"geo_point_2d":"{\"lon\":144.945282551707,\"lat\":-37.820995094927}","suburb_id":599,"latitude":-37.82099509,"street_no":"15","str_name":"Karlsruhe Lane","address_pnt":"15 Karlsruhe Lane  Docklands","easting":319153.9718,"northing":5812056.74,"gisid":46027,"longitude":144.9452826,"suburb":"Docklands","street_id":120030,"add_comp":""}},{"type":null,"properties":{"geo_point_2d":"{\"lon\":144.959511960453,\"lat\":-37.814937314019}","suburb_id":591,"latitude":-37.81493731,"street_no":"10","str_name":"Little Queen Street","address_pnt":"10 Little Queen Street  Melbourne","easting":320391.8218,"northing":5812756.409,"gisid":45608,"longitude":144.959512,"suburb":"Melbourne","street_id":833,"add_comp":""}},{"type":null,"properties":{"geo_point_2d":"{\"lon\":144.916124024721,\"lat\":-37.829776844321}","suburb_id":594,"latitude":-37.82977684,"street_no":"43","str_name":"Cook Street","address_pnt":"43 Cook Street  Port Melbourne","easting":316609.0468,"northing":5811025.388,"gisid":48439,"longitude":144.916124,"suburb":"Port Melbourne","street_id":1447,"add_comp":""}},{"type":null,"properties":{"geo_point_2d":"{\"lon\":144.935417595638,\"lat\":-37.795132826519}","suburb_id":590,"latitude":-37.79513283,"street_no":"341","str_name":"Macaulay Road","address_pnt":"341 Macaulay Road  Kensington","easting":318222.1928,"northing":5814907.436,"gisid":33008,"longitude":144.9354176,"suburb":"Kensington","street_id":847,"add_comp":""}},{"type":null,"properties":{"geo_point_2d":"{\"lon\":144.921986059315,\"lat\":-37.794916521741}","suburb_id":590,"latitude":-37.79491652,"street_no":"118","str_name":"Newman Street","address_pnt":"118 Newman Street  Kensington","easting":317038.9389,"northing":5814905.225,"gisid":32046,"longitude":144.9219861,"suburb":"Kensington","street_id":2032,"add_comp":""}},{"type":null,"properties":{"geo_point_2d":"{\"lon\":144.986018773132,\"lat\":-37.815418239447}","suburb_id":587,"latitude":-37.81541824,"street_no":"135","str_name":"George Street","address_pnt":"135 George Street  East Melbourne","easting":322726.4018,"northing":5812753.684,"gisid":7033,"longitude":144.9860188,"suburb":"East Melbourne","street_id":652,"add_comp":""}},{"type":null,"properties":{"geo_point_2d":"{\"lon\":144.926091846699,\"lat\":-37.795373540254}","suburb_id":590,"latitude":-37.79537354,"street_no":"8","str_name":"Clifford Terrace","address_pnt":"8 Clifford Terrace  Kensington","easting":317401.6027,"northing":5814862.542,"gisid":15933,"longitude":144.9260919,"suburb":"Kensington","street_id":117932,"add_comp":""}},{"type":null,"properties":{"geo_point_2d":"{\"lon\":144.943646435065,\"lat\":-37.794584675507}","suburb_id":592,"latitude":-37.79458468,"street_no":"46","str_name":"Erskine Street","address_pnt":"46 Erskine Street  North Melbourne","easting":318945.4474,"northing":5814984.239,"gisid":53291,"longitude":144.9436464,"suburb":"North Melbourne","street_id":611,"add_comp":""}},{"type":null,"properties":{"geo_point_2d":"{\"lon\":144.957988664463,\"lat\":-37.804835441272}","suburb_id":591,"latitude":-37.80483544,"street_no":"48","str_name":"O'connell Street","address_pnt":"48 O'connell Street  Melbourne","easting":320233.2216,"northing":5813874.445,"gisid":58525,"longitude":144.9579887,"suburb":"Melbourne","street_id":939,"add_comp":""}},{"type":null,"properties":{"geo_point_2d":"{\"lon\":144.939484589013,\"lat\":-37.797579121629}","suburb_id":592,"latitude":-37.79757912,"street_no":"42","str_name":"Henderson Street","address_pnt":"42 Henderson Street  North Melbourne","easting":318586.2988,"northing":5814643.884,"gisid":30744,"longitude":144.9394846,"suburb":"North Melbourne","street_id":702,"add_comp":""}},{"type":null,"properties":{"geo_point_2d":"{\"lon\":144.947551538402,\"lat\":-37.805070914075}","suburb_id":597,"latitude":-37.80507091,"street_no":"375","str_name":"Victoria Street","address_pnt":"375 Victoria Street  West Melbourne","easting":319314.8735,"northing":5813828.18,"gisid":57601,"longitude":144.9475515,"suburb":"West Melbourne","street_id":1152,"add_comp":""}},{"type":null,"properties":{"geo_point_2d":"{\"lon\":144.944618196751,\"lat\":-37.798400495723}","suburb_id":592,"latitude":-37.7984005,"street_no":"101","str_name":"Haines Street","address_pnt":"101 Haines Street  North Melbourne","easting":319040.3299,"northing":5814562.694,"gisid":13440,"longitude":144.9446182,"suburb":"North Melbourne","street_id":685,"add_comp":""}},{"type":null,"properties":{"geo_point_2d":"{\"lon\":144.955867117741,\"lat\":-37.802159873356}","suburb_id":592,"latitude":-37.80215987,"street_no":"19","str_name":"Bedford Street","address_pnt":"19 Bedford Street  North Melbourne","easting":320039.9377,"northing":5814167.258,"gisid":56502,"longitude":144.9558671,"suburb":"North Melbourne","street_id":428,"add_comp":""}},{"type":null,"properties":{"geo_point_2d":"{\"lon\":144.973302706721,\"lat\":-37.811522691017}","suburb_id":587,"latitude":-37.81152269,"street_no":"140","str_name":"Spring Street","address_pnt":"140 Spring Street  East Melbourne","easting":321597.6198,"northing":5813161.746,"gisid":37840,"longitude":144.9733027,"suburb":"East Melbourne","street_id":1088,"add_comp":""}},{"type":null,"properties":{"geo_point_2d":"{\"lon\":144.907992025478,\"lat\":-37.838429962745}","suburb_id":594,"latitude":-37.83842996,"street_no":"120","str_name":"Webb Dock Drive","address_pnt":"120 Webb Dock Drive  Port Melbourne","easting":315914.8275,"northing":5810049.169,"gisid":47075,"longitude":144.907992,"suburb":"Port Melbourne","street_id":120131,"add_comp":""}},{"type":null,"properties":{"geo_point_2d":"{\"lon\":144.987894243179,\"lat\":-37.81333654193}","suburb_id":587,"latitude":-37.81333654,"street_no":"77","str_name":"Gipps Street","address_pnt":"77 Gipps Street  East Melbourne","easting":322886.5248,"northing":5812988.239,"gisid":8489,"longitude":144.9878942,"suburb":"East Melbourne","street_id":656,"add_comp":""}},{"type":null,"properties":{"geo_point_2d":"{\"lon\":144.961872145922,\"lat\":-37.800696259225}","suburb_id":585,"latitude":-37.80069626,"street_no":"2","str_name":"Malvina Place","address_pnt":"2 Malvina Place  Carlton","easting":320565.118,"northing":5814341.219,"gisid":56815,"longitude":144.9618722,"suburb":"Carlton","street_id":867,"add_comp":""}},{"type":null,"properties":{"geo_point_2d":"{\"lon\":144.9327439915,\"lat\":-37.791399824298}","suburb_id":590,"latitude":-37.79139982,"street_no":"25","str_name":"Smith Street","address_pnt":"25 Smith Street  Kensington","easting":317977.6045,"northing":5815316.47,"gisid":28605,"longitude":144.932744,"suburb":"Kensington","street_id":119639,"add_comp":""}},{"type":null,"properties":{"geo_point_2d":"{\"lon\":144.958593143466,\"lat\":-37.78043118093}","suburb_id":593,"latitude":-37.78043118,"street_no":"383","str_name":"Mile Lane","address_pnt":"383 Mile Lane  Parkville","easting":320227.29,"northing":5816583.648,"gisid":18717,"longitude":144.9585931,"suburb":"Parkville","street_id":897,"add_comp":""}},{"type":null,"properties":{"geo_point_2d":"{\"lon\":144.966297117993,\"lat\":-37.800337378222}","suburb_id":585,"latitude":-37.80033738,"street_no":"8","str_name":"Dorrit Street","address_pnt":"8 Dorrit Street  Carlton","easting":320953.8628,"northing":5814389.531,"gisid":11185,"longitude":144.9662971,"suburb":"Carlton","street_id":575,"add_comp":""}},{"type":null,"properties":{"geo_point_2d":"{\"lon\":144.908216683946,\"lat\":-37.818178163688}","suburb_id":597,"latitude":-37.81817816,"street_no":"80","str_name":"Mackenzie Road","address_pnt":"80 Mackenzie Road  West Melbourne","easting":315884.2578,"northing":5812296.9,"gisid":15317,"longitude":144.9082167,"suburb":"West Melbourne","street_id":857,"add_comp":""}},{"type":null,"properties":{"geo_point_2d":"{\"lon\":144.958113543622,\"lat\":-37.808220681479}","suburb_id":591,"latitude":-37.80822068,"street_no":"448","str_name":"Queen Street","address_pnt":"448 Queen Street  Melbourne","easting":320252.4262,"northing":5813499.038,"gisid":34920,"longitude":144.9581135,"suburb":"Melbourne","street_id":1010,"add_comp":""}},{"type":null,"properties":{"geo_point_2d":"{\"lon\":144.942905594405,\"lat\":-37.790400080512}","suburb_id":592,"latitude":-37.79040008,"street_no":"195","str_name":"Melrose Street","address_pnt":"195 Melrose Street  North Melbourne","easting":318869.9912,"northing":5815447.152,"gisid":40012,"longitude":144.9429056,"suburb":"North Melbourne","street_id":890,"add_comp":""}},{"type":null,"properties":{"geo_point_2d":"{\"lon\":144.945293975934,\"lat\":-37.80296721329}","suburb_id":592,"latitude":-37.80296721,"street_no":"191","str_name":"Abbotsford Street","address_pnt":"191 Abbotsford Street  North Melbourne","easting":319110.9764,"northing":5814057.252,"gisid":55397,"longitude":144.945294,"suburb":"North Melbourne","street_id":367,"add_comp":""}},{"type":null,"properties":{"geo_point_2d":"{\"lon\":144.95558839555,\"lat\":-37.80439322678}","suburb_id":592,"latitude":-37.80439323,"street_no":"156","str_name":"Capel Street","address_pnt":"156 Capel Street  North Melbourne","easting":320020.8197,"northing":5813918.894,"gisid":56304,"longitude":144.9555884,"suburb":"North Melbourne","street_id":482,"add_comp":""}},{"type":null,"properties":{"geo_point_2d":"{\"lon\":144.968069079555,\"lat\":-37.813138932766}","suburb_id":591,"latitude":-37.81313893,"street_no":"145","str_name":"Russell Street","address_pnt":"145 Russell Street  Melbourne","easting":321140.7764,"northing":5812972.389,"gisid":38197,"longitude":144.9680691,"suburb":"Melbourne","street_id":1045,"add_comp":""}},{"type":null,"properties":{"geo_point_2d":"{\"lon\":144.963173026879,\"lat\":-37.828432609379}","suburb_id":596,"latitude":-37.82843261,"street_no":"147","str_name":"Kings Way","address_pnt":"147 Kings Way  Southbank","easting":320746.7693,"northing":5811265.921,"gisid":18348,"longitude":144.963173,"suburb":"Southbank","street_id":1359,"add_comp":""}},{"type":null,"properties":{"geo_point_2d":"{\"lon\":144.970040739061,\"lat\":-37.813882458234}","suburb_id":591,"latitude":-37.81388246,"street_no":"14","str_name":"Alfred Place","address_pnt":"14 Alfred Place  Melbourne","easting":321316.1414,"northing":5812893.657,"gisid":25602,"longitude":144.9700407,"suburb":"Melbourne","street_id":377,"add_comp":""}},{"type":null,"properties":{"geo_point_2d":"{\"lon\":144.940147521025,\"lat\":-37.798740878478}","suburb_id":592,"latitude":-37.79874088,"street_no":"25","str_name":"Fogarty Street","address_pnt":"25 Fogarty Street  North Melbourne","easting":318647.5133,"northing":5814516.255,"gisid":30970,"longitude":144.9401475,"suburb":"North Melbourne","street_id":639,"add_comp":""}},{"type":null,"properties":{"geo_point_2d":"{\"lon\":144.920606455497,\"lat\":-37.821858459225}","suburb_id":594,"latitude":-37.82185846,"street_no":"26","str_name":"Central Boulevard","address_pnt":"26 Central Boulevard  Port Melbourne","easting":316984.0001,"northing":5811912.862,"gisid":22839,"longitude":144.9206065,"suburb":"Port Melbourne","street_id":1383,"add_comp":""}},{"type":null,"properties":{"geo_point_2d":"{\"lon\":144.941258465827,\"lat\":-37.823291083642}","suburb_id":599,"latitude":-37.82329108,"street_no":"9","str_name":"Point Park Crescent","address_pnt":"9 Point Park Crescent  Docklands","easting":318805.3698,"northing":5811794.162,"gisid":40490,"longitude":144.9412585,"suburb":"Docklands","street_id":119560,"add_comp":""}},{"type":null,"properties":{"geo_point_2d":"{\"lon\":144.985548926763,\"lat\":-37.811973121601}","suburb_id":587,"latitude":-37.81197312,"street_no":"115","str_name":"Grey Street","address_pnt":"115 Grey Street  East Melbourne","easting":322676.797,"northing":5813135.082,"gisid":7216,"longitude":144.9855489,"suburb":"East Melbourne","street_id":677,"add_comp":""}},{"type":null,"properties":{"geo_point_2d":"{\"lon\":144.936210884206,\"lat\":-37.822243506772}","suburb_id":599,"latitude":-37.82224351,"street_no":"77","str_name":"South Wharf Drive","address_pnt":"77 South Wharf Drive  Docklands","easting":318358.5036,"northing":5811900.602,"gisid":47823,"longitude":144.9362109,"suburb":"Docklands","street_id":120031,"add_comp":""}},{"type":null,"properties":{"geo_point_2d":"{\"lon\":144.986983703164,\"lat\":-37.83293431788}","suburb_id":595,"latitude":-37.83293432,"street_no":"16","str_name":"The Righi","address_pnt":"16 The Righi  South Yarra","easting":322853.2401,"northing":5810811.827,"gisid":61820,"longitude":144.9869837,"suburb":"South Yarra","street_id":1032,"add_comp":""}},{"type":null,"properties":{"geo_point_2d":"{\"lon\":144.966798374252,\"lat\":-37.806137269894}","suburb_id":585,"latitude":-37.80613727,"street_no":"32","str_name":"Trades Hall Place","address_pnt":"32 Trades Hall Place  Carlton","easting":321012.0026,"northing":5813746.902,"gisid":46072,"longitude":144.9667984,"suburb":"Carlton","street_id":1128,"add_comp":""}},{"type":null,"properties":{"geo_point_2d":"{\"lon\":144.932066201508,\"lat\":-37.789076055952}","suburb_id":590,"latitude":-37.78907606,"street_no":"19","str_name":"Rankins Road","address_pnt":"19 Rankins Road  Kensington","easting":317912.213,"northing":5815573.009,"gisid":13646,"longitude":144.9320662,"suburb":"Kensington","street_id":119633,"add_comp":""}},{"type":null,"properties":{"geo_point_2d":"{\"lon\":144.936983592872,\"lat\":-37.812192593302}","suburb_id":599,"latitude":-37.81219259,"street_no":"11","str_name":"Star Circus","address_pnt":"11 Star Circus  Docklands","easting":318401.8861,"northing":5813017.421,"gisid":40966,"longitude":144.9369836,"suburb":"Docklands","street_id":119757,"add_comp":""}},{"type":null,"properties":{"geo_point_2d":"{\"lon\":144.939815139779,\"lat\":-37.780191446964}","suburb_id":593,"latitude":-37.78019145,"street_no":"55","str_name":"Galada Avenue","address_pnt":"55 Galada Avenue  Parkville","easting":318572.8751,"northing":5816573.969,"gisid":46251,"longitude":144.9398151,"suburb":"Parkville","street_id":119274,"add_comp":""}},{"type":null,"properties":{"geo_point_2d":"{\"lon\":144.960617987995,\"lat\":-37.818671095203}","suburb_id":591,"latitude":-37.8186711,"street_no":"23","str_name":"Market Street","address_pnt":"23 Market Street  Melbourne","easting":320498.2331,"northing":5812344.212,"gisid":6864,"longitude":144.960618,"suburb":"Melbourne","street_id":1424,"add_comp":""}},{"type":null,"properties":{"geo_point_2d":"{\"lon\":144.95891067603,\"lat\":-37.827884983796}","suburb_id":596,"latitude":-37.82788498,"street_no":"39","str_name":"Hancock Street","address_pnt":"39 Hancock Street  Southbank","easting":320370.2885,"northing":5811318.498,"gisid":46079,"longitude":144.9589107,"suburb":"Southbank","street_id":1361,"add_comp":""}},{"type":null,"properties":{"geo_point_2d":"{\"lon\":144.989320627551,\"lat\":-37.814684855298}","suburb_id":587,"latitude":-37.81468486,"street_no":"33","str_name":"Hotham Street","address_pnt":"33 Hotham Street  East Melbourne","easting":323015.3141,"northing":5812841.326,"gisid":8035,"longitude":144.9893206,"suburb":"East Melbourne","street_id":725,"add_comp":""}},{"type":null,"properties":{"geo_point_2d":"{\"lon\":144.952084180689,\"lat\":-37.804846046179}","suburb_id":592,"latitude":-37.80484605,"street_no":"2","str_name":"Blair Place","address_pnt":"2 Blair Place  North Melbourne","easting":319713.3956,"northing":5813861.89,"gisid":55926,"longitude":144.9520842,"suburb":"North Melbourne","street_id":447,"add_comp":""}},{"type":null,"properties":{"geo_point_2d":"{\"lon\":144.968620128398,\"lat\":-37.796498684969}","suburb_id":585,"latitude":-37.79649869,"street_no":"49","str_name":"Little Palmerston Street","address_pnt":"49 Little Palmerston Street  Carlton","easting":321149.1411,"northing":5814819.944,"gisid":12721,"longitude":144.9686201,"suburb":"Carlton","street_id":828,"add_comp":""}},{"type":null,"properties":{"geo_point_2d":"{\"lon\":144.920236887487,\"lat\":-37.794033026877}","suburb_id":590,"latitude":-37.79403303,"street_no":"5","str_name":"Hornsby Lane","address_pnt":"5 Hornsby Lane  Kensington","easting":316882.7323,"northing":5814999.837,"gisid":58633,"longitude":144.9202369,"suburb":"Kensington","street_id":1421,"add_comp":""}},{"type":null,"properties":{"geo_point_2d":"{\"lon\":144.949682603577,\"lat\":-37.818679990218}","suburb_id":599,"latitude":-37.81867999,"street_no":"77","str_name":"Aurora Lane","address_pnt":"77 Aurora Lane  Docklands","easting":319535.6445,"northing":5812322.151,"gisid":22986,"longitude":144.9496826,"suburb":"Docklands","street_id":117945,"add_comp":""}},{"type":null,"properties":{"geo_point_2d":"{\"lon\":144.94867914959,\"lat\":-37.803665079158}","suburb_id":592,"latitude":-37.80366508,"street_no":"10","str_name":"Atkin Street","address_pnt":"10 Atkin Street  North Melbourne","easting":319410.7272,"northing":5813986.361,"gisid":55627,"longitude":144.9486792,"suburb":"North Melbourne","street_id":403,"add_comp":""}},{"type":null,"properties":{"geo_point_2d":"{\"lon\":144.949955242865,\"lat\":-37.802199638305}","suburb_id":592,"latitude":-37.80219964,"street_no":"118","str_name":"Errol Street","address_pnt":"118 Errol Street  North Melbourne","easting":319519.513,"northing":5814151.441,"gisid":55029,"longitude":144.9499552,"suburb":"North Melbourne","street_id":607,"add_comp":""}},{"type":null,"properties":{"geo_point_2d":"{\"lon\":144.937604013396,\"lat\":-37.796095565299}","suburb_id":592,"latitude":-37.79609557,"street_no":"35","str_name":"Steel Street","address_pnt":"35 Steel Street  North Melbourne","easting":318417.0763,"northing":5814804.856,"gisid":45887,"longitude":144.937604,"suburb":"North Melbourne","street_id":1096,"add_comp":""}},{"type":null,"properties":{"geo_point_2d":"{\"lon\":144.920807927098,\"lat\":-37.797196074102}","suburb_id":590,"latitude":-37.79719607,"street_no":"21","str_name":"Wakefield Street","address_pnt":"21 Wakefield Street  Kensington","easting":316940.8256,"northing":5814649.963,"gisid":16293,"longitude":144.9208079,"suburb":"Kensington","street_id":3166,"add_comp":""}},{"type":null,"properties":{"geo_point_2d":"{\"lon\":144.942506612437,\"lat\":-37.82121749357}","suburb_id":599,"latitude":-37.82121749,"street_no":"2","str_name":"Adela Lane","address_pnt":"2 Adela Lane  Docklands","easting":318910.1648,"northing":5812026.682,"gisid":48160,"longitude":144.9425066,"suburb":"Docklands","street_id":120172,"add_comp":""}},{"type":null,"properties":{"geo_point_2d":"{\"lon\":144.941766557242,\"lat\":-37.821462730138}","suburb_id":599,"latitude":-37.82146273,"street_no":"86","str_name":"Australian Wharf","address_pnt":"86 Australian Wharf  Docklands","easting":318845.6217,"northing":5811998.034,"gisid":47975,"longitude":144.9417666,"suburb":"Docklands","street_id":120090,"add_comp":""}},{"type":null,"properties":{"geo_point_2d":"{\"lon\":144.971144337989,\"lat\":-37.810725740307}","suburb_id":591,"latitude":-37.81072574,"street_no":"2","str_name":"Punch Lane","address_pnt":"2 Punch Lane  Melbourne","easting":321405.6864,"northing":5813246.056,"gisid":35147,"longitude":144.9711443,"suburb":"Melbourne","street_id":1003,"add_comp":""}},{"type":null,"properties":{"geo_point_2d":"{\"lon\":144.962439226168,\"lat\":-37.81597180171}","suburb_id":591,"latitude":-37.8159718,"street_no":"16","str_name":"Collins Way","address_pnt":"16 Collins Way  Melbourne","easting":320652.0173,"northing":5812647.241,"gisid":4495,"longitude":144.9624392,"suburb":"Melbourne","street_id":527,"add_comp":""}},{"type":null,"properties":{"geo_point_2d":"{\"lon\":144.977929422373,\"lat\":-37.816873941402}","suburb_id":587,"latitude":-37.81687394,"street_no":"34","str_name":"Wellington Crescent","address_pnt":"34 Wellington Crescent  East Melbourne","easting":322017.7881,"northing":5812576.766,"gisid":3687,"longitude":144.9779294,"suburb":"East Melbourne","street_id":1168,"add_comp":""}},{"type":null,"properties":{"geo_point_2d":"{\"lon\":144.962925225478,\"lat\":-37.780294262175}","suburb_id":0,"latitude":-37.78029426,"street_no":"66","str_name":"Bowen Crescent","address_pnt":"66 Bowen Crescent","easting":320608.4962,"northing":5816607.164,"gisid":23214,"longitude":144.9629252,"suburb":"","street_id":457,"add_comp":""}},{"type":null,"properties":{"geo_point_2d":"{\"lon\":144.981363976984,\"lat\":-37.836501747794}","suburb_id":595,"latitude":-37.83650175,"street_no":"20","str_name":"Little Park Street","address_pnt":"20 Little Park Street  South Yarra","easting":322367.2079,"northing":5810405.286,"gisid":59613,"longitude":144.981364,"suburb":"South Yarra","street_id":829,"add_comp":""}},{"type":null,"properties":{"geo_point_2d":"{\"lon\":144.947923942403,\"lat\":-37.801833936251}","suburb_id":592,"latitude":-37.80183394,"street_no":"7","str_name":"Magnus Lane","address_pnt":"7 Magnus Lane  North Melbourne","easting":319339.7723,"northing":5814188.096,"gisid":41013,"longitude":144.9479239,"suburb":"North Melbourne","street_id":120097,"add_comp":""}},{"type":null,"properties":{"geo_point_2d":"{\"lon\":144.930573002931,\"lat\":-37.790581427957}","suburb_id":590,"latitude":-37.79058143,"street_no":"5","str_name":"Mulgrave Street","address_pnt":"5 Mulgrave Street  Kensington","easting":317784.4167,"northing":5815403.053,"gisid":47771,"longitude":144.930573,"suburb":"Kensington","street_id":119640,"add_comp":""}},{"type":null,"properties":{"geo_point_2d":"{\"lon\":144.943082726868,\"lat\":-37.792135176157}","suburb_id":592,"latitude":-37.79213518,"street_no":"46","str_name":"Curran Street","address_pnt":"46 Curran Street  North Melbourne","easting":318889.8271,"northing":5815254.958,"gisid":53200,"longitude":144.9430827,"suburb":"North Melbourne","street_id":550,"add_comp":""}},{"type":null,"properties":{"geo_point_2d":"{\"lon\":144.922239265128,\"lat\":-37.790491645184}","suburb_id":590,"latitude":-37.79049165,"street_no":"29","str_name":"Colonial Place","address_pnt":"29 Colonial Place  Kensington","easting":317050.3187,"northing":5815396.734,"gisid":20642,"longitude":144.9222393,"suburb":"Kensington","street_id":1406,"add_comp":""}},{"type":null,"properties":{"geo_point_2d":"{\"lon\":144.973464017302,\"lat\":-37.800032368762}","suburb_id":585,"latitude":-37.80003237,"street_no":"25","str_name":"Murchison Street","address_pnt":"25 Murchison Street  Carlton","easting":321584.165,"northing":5814437.087,"gisid":10449,"longitude":144.973464,"suburb":"Carlton","street_id":921,"add_comp":""}},{"type":null,"properties":{"geo_point_2d":"{\"lon\":144.933565350101,\"lat\":-37.822945312113}","suburb_id":594,"latitude":-37.82294531,"street_no":"375","str_name":"Ingles Street","address_pnt":"375 Ingles Street  Port Melbourne","easting":318127.3585,"northing":5811817.576,"gisid":974,"longitude":144.9335654,"suburb":"Port Melbourne","street_id":1387,"add_comp":""}},{"type":null,"properties":{"geo_point_2d":"{\"lon\":144.949739468064,\"lat\":-37.797974641646}","suburb_id":592,"latitude":-37.79797464,"street_no":"18","str_name":"Harker Street","address_pnt":"18 Harker Street  North Melbourne","easting":319490.2278,"northing":5814619.856,"gisid":53757,"longitude":144.9497395,"suburb":"North Melbourne","street_id":691,"add_comp":""}},{"type":null,"properties":{"geo_point_2d":"{\"lon\":144.919822061538,\"lat\":-37.79682846753}","suburb_id":590,"latitude":-37.79682847,"street_no":"65","str_name":"Tankard Street","address_pnt":"65 Tankard Street  Kensington","easting":316853.109,"northing":5814688.823,"gisid":16574,"longitude":144.9198221,"suburb":"Kensington","street_id":2034,"add_comp":""}},{"type":null,"properties":{"geo_point_2d":"{\"lon\":144.958071828058,\"lat\":-37.819653753998}","suburb_id":591,"latitude":-37.81965375,"street_no":"16","str_name":"Highlander Lane","address_pnt":"16 Highlander Lane  Melbourne","easting":320276.486,"northing":5812230.273,"gisid":4875,"longitude":144.9580718,"suburb":"Melbourne","street_id":710,"add_comp":""}},{"type":null,"properties":{"geo_point_2d":"{\"lon\":144.910189963888,\"lat\":-37.806619162561}","suburb_id":597,"latitude":-37.80661916,"street_no":"692","str_name":"Footscray Road","address_pnt":"692 Footscray Road  West Melbourne","easting":316029.2672,"northing":5813583.457,"gisid":14482,"longitude":144.91019,"suburb":"West Melbourne","street_id":640,"add_comp":""}},{"type":null,"properties":{"geo_point_2d":"{\"lon\":144.958955235621,\"lat\":-37.809047919917}","suburb_id":591,"latitude":-37.80904792,"street_no":"21","str_name":"Anthony Street","address_pnt":"21 Anthony Street  Melbourne","easting":320328.5338,"northing":5813408.862,"gisid":5593,"longitude":144.9589552,"suburb":"Melbourne","street_id":388,"add_comp":""}},{"type":null,"properties":{"geo_point_2d":"{\"lon\":144.961884570655,\"lat\":-37.804835026867}","suburb_id":585,"latitude":-37.80483503,"street_no":"74","str_name":"Bouverie Street","address_pnt":"74 Bouverie Street  Carlton","easting":320576.2298,"northing":5813881.981,"gisid":63706,"longitude":144.9618846,"suburb":"Carlton","street_id":456,"add_comp":""}},{"type":null,"properties":{"geo_point_2d":"{\"lon\":144.959972732378,\"lat\":-37.803872852744}","suburb_id":585,"latitude":-37.80387285,"street_no":"9","str_name":"Barry Street","address_pnt":"9 Barry Street  Carlton","easting":320405.5737,"northing":5813985.076,"gisid":24842,"longitude":144.9599727,"suburb":"Carlton","street_id":421,"add_comp":""}},{"type":null,"properties":{"geo_point_2d":"{\"lon\":144.943805187005,\"lat\":-37.814095169396}","suburb_id":599,"latitude":-37.81409517,"street_no":"8","str_name":"Newquay Promenade","address_pnt":"8 Newquay Promenade  Docklands","easting":319007.0724,"northing":5812819.539,"gisid":9837,"longitude":144.9438052,"suburb":"Docklands","street_id":117864,"add_comp":""}},{"type":null,"properties":{"geo_point_2d":"{\"lon\":144.984664684106,\"lat\":-37.844511519243}","suburb_id":595,"latitude":-37.84451152,"street_no":"18","str_name":"Park Lane","address_pnt":"18 Park Lane  South Yarra","easting":322676.8753,"northing":5809522.747,"gisid":59957,"longitude":144.9846647,"suburb":"South Yarra","street_id":958,"add_comp":""}},{"type":null,"properties":{"geo_point_2d":"{\"lon\":144.922275762024,\"lat\":-37.796178892427}","suburb_id":590,"latitude":-37.79617889,"street_no":"33","str_name":"Newton Street","address_pnt":"33 Newton Street  Kensington","easting":317067.5634,"northing":5814765.711,"gisid":31731,"longitude":144.9222758,"suburb":"Kensington","street_id":3170,"add_comp":""}},{"type":null,"properties":{"geo_point_2d":"{\"lon\":144.953783364812,\"lat\":-37.796253166138}","suburb_id":593,"latitude":-37.79625317,"street_no":"51","str_name":"Park Drive","address_pnt":"51 Park Drive  Parkville","easting":319842.1172,"northing":5814818.686,"gisid":25060,"longitude":144.9537834,"suburb":"Parkville","street_id":956,"add_comp":""}},{"type":null,"properties":{"geo_point_2d":"{\"lon\":144.943853134189,\"lat\":-37.805013145935}","suburb_id":597,"latitude":-37.80501315,"street_no":"109","str_name":"Silk Place","address_pnt":"109 Silk Place  West Melbourne","easting":318989.1123,"northing":5813827.431,"gisid":48642,"longitude":144.9438531,"suburb":"West Melbourne","street_id":1432,"add_comp":""}},{"type":null,"properties":{"geo_point_2d":"{\"lon\":144.96311579687,\"lat\":-37.815744767282}","suburb_id":591,"latitude":-37.81574477,"street_no":"23","str_name":"Equitable Place","address_pnt":"23 Equitable Place  Melbourne","easting":320711.0266,"northing":5812673.733,"gisid":4533,"longitude":144.9631158,"suburb":"Melbourne","street_id":606,"add_comp":""}},{"type":null,"properties":{"geo_point_2d":"{\"lon\":144.975557155716,\"lat\":-37.80870832709}","suburb_id":587,"latitude":-37.80870833,"street_no":"37","str_name":"Gisborne Street","address_pnt":"37 Gisborne Street  East Melbourne","easting":321789.3235,"northing":5813478.348,"gisid":336,"longitude":144.9755572,"suburb":"East Melbourne","street_id":657,"add_comp":""}},{"type":null,"properties":{"geo_point_2d":"{\"lon\":144.932221878284,\"lat\":-37.795950406981}","suburb_id":590,"latitude":-37.79595041,"street_no":"17","str_name":"Little Chelmsford Street","address_pnt":"17 Little Chelmsford Street  Kensington","easting":317942.8001,"northing":5814810.491,"gisid":32948,"longitude":144.9322219,"suburb":"Kensington","street_id":3005,"add_comp":""}},{"type":null,"properties":{"geo_point_2d":"{\"lon\":144.960310335729,\"lat\":-37.82426547404}","suburb_id":596,"latitude":-37.82426547,"street_no":"62","str_name":"Queens Bridge Street","address_pnt":"62 Queens Bridge Street  Southbank","easting":320484.7087,"northing":5811722.833,"gisid":50164,"longitude":144.9603103,"suburb":"Southbank","street_id":1009,"add_comp":""}},{"type":null,"properties":{"geo_point_2d":"{\"lon\":144.922940995452,\"lat\":-37.790701967847}","suburb_id":590,"latitude":-37.79070197,"street_no":"13","str_name":"Cuffe Walk","address_pnt":"13 Cuffe Walk  Kensington","easting":317112.6325,"northing":5815374.768,"gisid":20341,"longitude":144.922941,"suburb":"Kensington","street_id":1409,"add_comp":""}},{"type":null,"properties":{"geo_point_2d":"{\"lon\":144.963907508317,\"lat\":-37.823637044964}","suburb_id":596,"latitude":-37.82363704,"street_no":"71","str_name":"Fawkner Street","address_pnt":"71 Fawkner Street  Southbank","easting":320799.8128,"northing":5811799.477,"gisid":49831,"longitude":144.9639075,"suburb":"Southbank","street_id":1340,"add_comp":""}},{"type":null,"properties":{"geo_point_2d":"{\"lon\":144.966935286023,\"lat\":-37.8137448939}","suburb_id":591,"latitude":-37.81374489,"street_no":"20","str_name":"Royal Lane","address_pnt":"20 Royal Lane  Melbourne","easting":321042.428,"northing":5812902.977,"gisid":4210,"longitude":144.9669353,"suburb":"Melbourne","street_id":1040,"add_comp":""}},{"type":null,"properties":{"geo_point_2d":"{\"lon\":144.93310322602,\"lat\":-37.796383729742}","suburb_id":590,"latitude":-37.79638373,"street_no":"1","str_name":"Albermarle Street","address_pnt":"1 Albermarle Street  Kensington","easting":318021.4702,"northing":5814764.124,"gisid":32982,"longitude":144.9331032,"suburb":"Kensington","street_id":374,"add_comp":""}},{"type":null,"properties":{"geo_point_2d":"{\"lon\":144.91050255689,\"lat\":-37.834517540658}","suburb_id":594,"latitude":-37.83451754,"street_no":"7","str_name":"Kooringa Way","address_pnt":"7 Kooringa Way  Port Melbourne","easting":316126.0485,"northing":5810488.269,"gisid":47168,"longitude":144.9105026,"suburb":"Port Melbourne","street_id":120132,"add_comp":""}},{"type":null,"properties":{"geo_point_2d":"{\"lon\":144.964525805444,\"lat\":-37.818135543119}","suburb_id":591,"latitude":-37.81813554,"street_no":"2","str_name":"Flinders Court","address_pnt":"2 Flinders Court  Melbourne","easting":320840.9315,"northing":5812411.144,"gisid":4667,"longitude":144.9645258,"suburb":"Melbourne","street_id":634,"add_comp":""}},{"type":null,"properties":{"geo_point_2d":"{\"lon\":144.926859997215,\"lat\":-37.822247708807}","suburb_id":594,"latitude":-37.82224771,"street_no":"34","str_name":"Hall Street","address_pnt":"34 Hall Street  Port Melbourne","easting":317535.4191,"northing":5811881.906,"gisid":2264,"longitude":144.92686,"suburb":"Port Melbourne","street_id":1388,"add_comp":""}},{"type":null,"properties":{"geo_point_2d":"{\"lon\":144.933386320609,\"lat\":-37.797318764494}","suburb_id":590,"latitude":-37.79731876,"street_no":"5","str_name":"Fink Street","address_pnt":"5 Fink Street  Kensington","easting":318048.6924,"northing":5814660.917,"gisid":15500,"longitude":144.9333863,"suburb":"Kensington","street_id":626,"add_comp":""}},{"type":null,"properties":{"geo_point_2d":"{\"lon\":144.933660690035,\"lat\":-37.788641935065}","suburb_id":590,"latitude":-37.78864194,"street_no":"225","str_name":"Racecourse Road","address_pnt":"225 Racecourse Road  Kensington","easting":318051.5628,"northing":5815624.287,"gisid":21801,"longitude":144.9336607,"suburb":"Kensington","street_id":119624,"add_comp":""}},{"type":null,"properties":{"geo_point_2d":"{\"lon\":144.980605499658,\"lat\":-37.816748269941}","suburb_id":587,"latitude":-37.81674827,"street_no":"119","str_name":"Wellington Parade South","address_pnt":"119 Wellington Parade South  East Melbourne","easting":322253.0588,"northing":5812595.808,"gisid":20245,"longitude":144.9806055,"suburb":"East Melbourne","street_id":1170,"add_comp":""}},